lake_ID,lake_name,latitude,longitude,ecozone,area,size_class,watershed_area,max_depth,invivo_chla_surface,invivo_chla_bottom,filtered_chla_surface,surface_temp,watercolumn_temp,epilimnion_temp,hypolimnion_temp,tp_tube,tp_bottom,tn_tube,tn_bottom,tntp_ratio,zoo_richness,zoo_density
04-572,Nataiinlaii Gwint’ii Van,67.332779,-134.844522,Taiga Plains,0.522719,medium,1.379928725,5.5,2.025802,2.081752,2.295488178,19.28334,18.9,19.2,16.8,17.95,54.87,0.206665365,0.330262365,11.51339081,8,27.294721920999997
04-573,Dalts’an Jìthìnùu Vàn,67.34958,-134.923101,Taiga Plains,0.791204,medium,24.09425147,4.4,3.836998,3.832958,1.165818489,14.310053,14.3,14.310053,14.313815,23.15,54.87,0.255755865,0.330262365,11.04776955,9,15.048323508
04-574,NA,67.417758,-133.922557,Taiga Plains,0.099021,small,0.713264189,1,1.576944,3.486732,1.351110622,12.872814,12.9,12.872814,14.8990555,10.29,54.87,0.405095865,0.330262365,39.36791691,3,46.833225232000004
04-575,NA,67.381817,-134.040849,Taiga Plains,0.241822,small,1.116392271,1.7,4.031007,4.031007,2.968474089,17.334883,17.3,17.334883,17.332677,20.91,54.87,0.612972365,0.330262365,29.31479507,5,45.22046262800001
04-576,Chii Eche?i?i? Van,67.468001,-133.763637,Taiga Plains,0.423838,small,1.23397767,5.3,2.636868,1.659535,1.669539022,13.418347,13.4,13.418347,13.310401,13.62,54.87,0.232271865,0.330262365,17.05373458,8,9.403559188
04-577,NA,68.344096,-133.705674,Taiga Plains,0.100559,small,0.402194865,5.5,6.71469,4.381147,6.388611289,13.709737,13.7,13.709737,13.713139,47.81,54.87,0.475794865,0.330262365,9.951785505,7,0.7241832650000001
04-578,Boot Lake,68.350907,-133.708655,Taiga Plains,0.22105,small,31.27855942,4.4,3.876425,4.239609,2.5688684,16.975888,16.5,17,13.5,22.73,54.87,0.170274365,0.330262365,7.491173119,5,4.181808692
04-579,Campbell Lake,68.232838,-133.44037,Taiga Plains,35.664946,large,1316.522429,15,3.437166,3.452979,2.363060445,14.478014,14.5,14.478014,14.425748,15.79,54.87,0.438800865,0.330262365,16.95252554,3,2.741514219
04-580,NA,67.46993,-134.72108,Taiga Plains,0.73233,medium,1.957355853,1,2.998697,3.102514,7.532181334,17.131734,17.1,17.131734,17.135419,30.35,54.87,0.456261865,0.330262365,15.03333987,8,245.780145585
04-581,NA,67.432054,-134.851562,Taiga Plains,0.397939,small,6.60532446,3.9,3.676014,2.920265,2.509211067,19.231444,19.1,19.2,17.1,23.54,54.87,0.263511365,0.330262365,11.19419562,8,15.04294195
04-582,NA,68.335154,-133.680514,Taiga Plains,0.316949,small,26.54530432,5.5,6.150086,6.511015,4.602435289,13.649118,13.7,13.649118,13.653175,83.24,54.87,0.273548365,0.330262365,3.286260992,NA,NA
04-583,NA,67.442962,-134.511877,Taiga Plains,0.266181,small,36.20300757,6.3,3.371451,3.486732,2.339906311,17.650959,17.4,17.6,14.8,17.41,54.87,0.264763865,0.330262365,15.2075741,5,53.492081449
04-609,Heart Lake,60.836026,-116.656975,Taiga Plains,2.539551,medium,10.05255226,2.1,2.507964,2.388947,1.79339526,17.767539,17.8,17.767539,17.773289,17.46,54.87,0.626484865,0.330262365,35.8811492,7,7.1819932699999995
04-611,NA,60.063822,-116.847789,Taiga Plains,0.417719,small,25.80581868,1,5.93748,3.486732,7.240076978,23.557474,23.6,23.557474,23.566139,58.93,54.87,0.677368865,0.330262365,11.494465720000001,NA,NA
04-612,NA,60.721344,-114.996196,Taiga Plains,0.696052,medium,3.449867523,6.5,1.561236,2.133763,2.591609067,21.139437,21.1,21.139437,20.963469,11.91,54.87,0.639349865,0.330262365,53.68176868,7,31.727466485
04-613,NA,60.813148,-114.589631,Taiga Plains,0.05081,small,0.820128719,1.5,2.837409,3.486732,0.6905484,19.54656,19.5,19.54656,14.8990555,8.78,54.87,0.421339865,0.330262365,47.9885951,7,18.507011802
04-614,NA,60.53671,-114.568217,Taiga Plains,0.196621,small,0.32555471,1.8,6.299643,3.486732,4.225314311,19.644961,19.6,19.644961,14.8990555,32.56,54.87,0.548678865,0.330262365,16.85131649,2,112.137462497
04-615,Pine Lake,59.534902,-112.216745,Taiga Plains,2.961035,medium,23.41040267,24,1.116829,1.12086,1.089130267,19.723814,11.1,19.7,5.4,11.45,54.87,0.292585365,0.330262365,25.55330699,5,9.432157585999999
04-616,NA,59.944209,-111.853586,Taiga Plains,0.412268,small,6.910827837,1.2,7.495526,7.486842,4.153056089,19.262495,19.2,19.262495,19.254102,31.6,54.87,0.605294865,0.330262365,19.15490079,3,71.47689258599999
04-617,NA,60.596644,-116.262865,Taiga Plains,0.327378,small,1.359861765,1,5.210647851,3.486732,2.582709689,18.61233931,18.6,18.61233931,14.8990555,25.22,54.87,0.438800865,0.330262365,16.95252554,6,4.25571508
04-618,Chan Lake,61.890891,-116.542274,Taiga Plains,0.79663,medium,33.71783939,1.8,7.323806,7.145258,4.707950857,15.733665,15.7,15.733665,15.734636,26.25,54.87,0.815950865,0.330262365,31.08384248,NA,NA
04-619,NA,62.556145,-116.433386,Taiga Plains,0.139027,small,10.88186823,0.65,2.026794155,3.486732,1.837504934,14.30030879,14.3,14.30030879,14.8990555,10.94,54.87,0.550144865,0.330262365,50.28746481,4,3.556678347
04-620,NA,61.998774,-116.330501,Taiga Plains,0.657526,medium,3.841577518,1.3,2.176479,2.147029,0.7945648,14.483201,14.5,14.483201,14.482353,16.07,54.87,0.780875365,0.330262365,48.59211979,6,52.74746732399999
04-621,NA,61.930612000000004,-116.520168,Taiga Plains,0.419718,small,1.149377354,1.4,4.056226,3.860532,2.771182985,13.594057,13.6,13.594057,13.592386,24.94,54.87,0.438800865,0.330262365,16.95252554,5,29.030146938
04-622,NA,59.798928,-122.523299,Taiga Plains,0.078111,small,1.347120829,1.2,8.327982,9.112872,9.754919066,15.042063,15,15.042063,14.998111,41.89,54.87,0.245652365,0.330262365,5.864224517,3,0.493766366
04-623,Parker Lake,58.822968,-122.901342,Boreal Plains,0.62639,medium,13.6554371,1.2,14.241528,11.934197,12.13008818,17.681606,17.8,17.681606,17.87973,77.77,83.53575618,1.134208365,0.46700147,14.58413739,8,112.15531305299999
04-624,NA,58.623863,-122.693773,Boreal Plains,0.193301,small,0.407894621,1.8,13.116194,14.111182,5.941756642,17.953347,18,17.953347,18.025479,34.22,83.53575618,0.242768865,0.46700147,7.094356078,7,51.348787989
06-036,Lac des Rapides,50.313788,-66.428761,Boreal Shield,5.77445,large,519.3282193,66,3.716417,3.158504,1.065956445,19.07875,6.6,18.9,5,8.362236684,16.50145412,0.057250527,0.068354527,6.846317458,6,18.391026735362733
06-066,NA,49.869455,-68.732763,Boreal Shield,0.416603,small,51.73781007,13,4.0293,2.453761,1.335347698,17.551667,10.2,17.4,6.7,13.71534519,16.50145412,0.083121527,0.106922027,6.060476485,9,15.048137452836391
06-071,Lac Parenthèses,50.365341,-68.818863,Boreal Shield,1.875561,medium,6.875913394,17,2.184995,1.438511,1.12755904,16.682216,10.4,16.6,4.9,8.711811667,16.50145412,0.025,0.062213027,2.869667178,7,83.05704422607417
06-080,Lac Jérôme,48.248292,-69.637829,Boreal Shield,0.159765,small,26.48358362,11,1.4036155,2.516707,1.120234774,20.8492895,16,20.6,8.3,6.4101048370000004,16.50145412,0.069697027,0.085975027,10.87299331,11,37.790342647166824
06-083,Lac Saint-Antoine,47.534528,-70.232947,Boreal Shield,0.272092,small,7.082073113,4,4.113738,3.20114,4.954330949,18.855858,18.5,18.8,17.9,31.30553253,16.50145412,0.166618027,0.197273999,5.322318886,5,160.3563764832698
06-085,Lac Nairne,47.685661,-70.349677,Boreal Shield,2.456499,medium,28.31436755,11,3.1627475,1.46358,13.39632,19.6163585,16.7,19.5,10,50.28266969,16.50145412,0.238261027,0.108369527,4.738432316,5,199.25021009223224
06-095,Lac Simoncouche,48.231271,-71.251055,Boreal Shield,0.838487,medium,25.09269861,7,2.219465,4.651663,2.610872676,18.873797,18.6,18.9,18.124569,23.78771801,16.50145412,0.129149527,0.197273999,5.42925248,9,57.743120215113244
06-096,Lac Saint-Charles,46.948182,-71.392515,Boreal Shield,3.570082,medium,172.1454031,16,7.3401995,1.035622,6.677494542,18.320929,12.2,18.3,8.5,53.54255132,16.50145412,0.202649027,0.196648027,3.784822015,9,91.33529297062839
06-100,Lac Élie-Gagnon,48.721602,-71.671653,Boreal Shield,0.115117,small,4.120569325,21,0.768617,0.692136,1.00848064,19.332171,9.4,19,5,5.816371895,16.50145412,0.210770527,0.025,36.23745709,7,4.016904504606522
06-101,Lac Maupertuis,50.418743,-71.734219,Boreal Shield,14.184478,large,210.9391072,21,4.18138,2.719182,0.832666738,15.815075,13.3,15.8,9.1,7.71884947,16.50145412,0.070636527,0.090085527,9.151173018,6,36.7925094009192
06-102,Lac Froget,50.732795,-71.771475,Boreal Shield,3.11079,medium,20.84191727,13,3.465144,3.664459,1.352012373,15.335942,15.3,15.335942,15.292249,7.280254955,16.50145412,0.081050527,0.197273999,11.13292426,9,63.943205321324285
06-103,Lac à la Croix,48.395105,-71.773708,Boreal Shield,0.720739,medium,10.01515648,34,4.530574,1.521596,2.830112391,19.831634,7.8,19.8,4.5,15.1028917,16.50145412,0.195218027,0.483536527,12.92587081,12,183.3391977228585
06-104,Lac Vouzier,48.407729,-71.78678,Boreal Shield,0.12174,small,0.68743542,37,0.601555,5.042117,1.531732552,18.542326,12.8,18.5,6.9,6.709573128,16.50145412,0.100763527,0.301175527,15.01787447,7,216.23710684627204
06-124,Lac de l'Achigan,45.943917,-73.977427,Boreal Shield,5.456538,large,98.87524468,23.7,1.16994,1.115622,1.787436089,22.687184,14.3,22.4,8.4,12.40957662,16.50145412,0.025,0.164520527,2.014573161,10,48.70902727734438
06-125,Lac Croche,45.992729,-74.00935,Boreal Shield,0.180495,small,1.052923716,11.7,2.603347,1.03424,1.386444302,22.530938,12.4,22.5,6.2,8.532962307,16.50145412,0.025,0.110715027,2.929814887,7,46.34222832116262
06-126,Lac Paula,48.993311,-74.029437,Boreal Shield,0.554081,medium,3.376600828,17,3.14230825,2.453761,1.662403769,19.65511325,15,19.6,8.35,30.09965102,16.50145412,0.131367027,0.197273999,8.556140969,9,46.2216363558721
06-127,Lac Duminy,48.987717,-74.06735,Boreal Shield,0.179844,small,9.700449466,1.6,3.9397905,3.986255,1.505727467,14.536876,14.5,14.7,13.8,32.37170717,16.50145412,0.081169527,0.197273999,2.507421885,8,154.25508788185329
06-128,Lac des Seigneurs,45.862265,-74.115675,Boreal Shield,0.171636,small,1.680989952,18.5,0.861922,2.191192,1.625089387,22.200397,10.7,22.2,4.9,9.124901543,16.50145412,0.065833027,0.445068527,7.214656146,6,133.73158211136118
06-129,Lac Winsch,50.032073,-74.221815,Boreal Shield,1.262021,medium,10.84736968,33,0.744049,1.040713,0.775883982,15.942387,8,16,4.6,15.46191229,16.50145412,0.025,0.127971027,1.616876331,5,81.69758843350152
06-130,Lac Marois,45.850978,-74.131647,Boreal Shield,0.970598,medium,8.913519502,23.7,0.952773,1.003971,1.945325227,21.997538,13.9,21.9,7.2,10.83196583,16.50145412,0.051311527,0.402214027,4.737046609,7,99.5890259344665
06-131,Lac Rond,45.948099,-74.143866,Boreal Shield,0.17234,small,1.421381485,15,0.869613,3.20496,1.967408285,22.890178,12.2,22.7,6.2,12.08626078,16.50145412,0.025,0.664256527,2.068464387,8,320.700997899261
06-132,Lac Sainte-Marie,45.958676,-74.266369,Boreal Shield,2.061438,medium,102.7817043,16,3.4729375,1.530505,3.649437938,22.7778865,18.3,22.7,8.7,12.89174156,16.50145412,0.069204027,0.262366527,5.368089848,11,156.94660325372578
06-133,Lac Duhamel,46.142222,-74.638943,Boreal Shield,0.541703,medium,3.186415656,26,0.800219,0.778425,0.910760747,22.82764,11,22.7,6.1,11.04681367,16.50145412,0.025,0.243799027,2.263096015,7,126.1398084084136
06-136,Lac Ouellette,46.719648,-75.437263,Boreal Shield,0.614648,medium,4.08318653,13,1.783306,1.335714,6.25218304,20.022567,13.5,19.8,7.4,48.00452789,16.50145412,0.199961527,0.148826527,4.165472213,6,112.57908708097116
06-137,Lac des Îles,46.450343,-75.551099,Boreal Shield,16.716756,large,147.599341,40,3.121869,0.861683,2.895684267,20.604589,11.1,20.4,8.2,21.82795761,16.50145412,0.102047527,0.193161027,4.675083617,9,39.90814562325168
06-139,Lac Vert,45.902448,-75.605782,Boreal Shield,0.318825,small,1.263203431,26,0.570286,2.338814,1.225788368,21.296292,11.6,21.2,5.8,39.97371589,16.50145412,0.100319527,0.170233527,2.509637265,10,98.80376841624967
06-140,Lac Daine,49.87207,-75.664784,Boreal Shield,2.315668,medium,20.01432662,3.5,5.076379,5.4587505,2.229617031,17.552196,17.5,17.552196,17.5000905,39.17591543,16.50145412,0.101978527,0.197273999,2.603092381,8,132.47265273004302
06-141,Lac Pelletier,48.214044,-79.052766,Boreal Shield,3.039968,medium,35.95958733,5,4.145991,3.415854,8.439193316,19.319177,19.2,19.319177,19.094516,38.93513108,16.50145412,0.301667527,0.197273999,7.747952008,8,149.89846878221064
06-142,Lac Manitou,45.875279,-75.956424,Boreal Shield,0.645116,medium,6.117851726,24,1.678928,2.137806,1.291118578,21.132944,9.6,21.1,4.9,24.0792275,16.50145412,0.171136027,0.291924527,7.107205868,8,67.24667034253291
06-146,Lac Blue Sea,46.192548,-76.057327,Boreal Shield,14.645392,large,87.80546087,57,0.906828,0.516075,1.551673458,19.487195,8.4,19.5,6,40.80609545,16.50145412,0.092534027,0.113409027,2.267652074,11,77.81649405493724
06-156,Wabun Lake,45.226736,-76.831453,Boreal Shield,0.464882,small,2.284297227,26,1.171863,1.964292,1.200738702,19.286466,8.5,19.2,4.7,9.80869712,16.50145412,0.137410027,0.188793027,14.00899888,7,51.79138061625433
06-158,Lac Merlin,48.893947,-76.881395,Boreal Shield,0.183971,small,18.33707639,6,4.5983055,3.2860895,1.309799396,17.7140875,13.8,18.3,8.1,12.16035302,16.50145412,0.116222527,0.140748027,9.557496139,7,182.43366189319002
06-159,Mink Lake,45.564777,-77.04943,Boreal Shield,5.706756,large,42.46778775,10,2.401386,2.533976,2.699882205,18.604716,18.6,18.604716,18.594152,10.07671649,16.50145412,0.217646527,0.197273999,21.59895311,5,24.572488962038367
06-161,Fraser Lake,45.190967,-77.651071,Boreal Shield,2.286946,medium,10.17715114,16,1.482207,1.336236,4.062920356,18.490733,13.3,18.4,8.7,23.08778229,16.50145412,0.189818027,0.198041027,8.221579041,8,32.06791230042116
06-165,Lac Obalski,48.753092,-77.960512,Boreal Shield,18.067511,large,4209.586217,1.8,4.814728,4.975617,3.55860128,17.588522,17.6,17.588522,17.586377,42.95589533,16.50145412,0.236840027,0.197273999,5.51356281,12,1.7944161533397032
06-167,Lac Chenon,47.328987,-78.470022,Boreal Shield,6.899366,large,56.77582992,28,1.535113,1.073407,1.707105423,18.28549,9,18.3,4.6,12.89174156,16.50145412,0.084102027,0.131078027,8.556140969,9,25.10388389706561
06-171,Lac Macamic,48.798152,-78.975731,Boreal Shield,45.905615,large,1192.508845,2.2,4.808563,4.536149,3.447837233,17.179072,17.1,17.179072,17.092158,77.9909703,16.50145412,0.248026527,0.197273999,3.180195426,NA,NA
06-174,Lac Wasi,46.138734,-79.225947,Boreal Shield,6.921495,large,138.9537707,4.9,8.208241,8.62587,7.184081778,18.338924,18.3,18.338924,18.232595,36.50142152,16.50145412,0.231390027,0.221937527,6.3392059100000004,9,127.4762175832323
06-176,Lac Cloutier,47.626548,-79.27745,Boreal Shield,0.789489,medium,8.058473853,4.8,7.248448,2.453761,5.177768249,19.693868,19.7,19.693868,8.35,35.99676041,16.50145412,0.246063527,0.249774027,6.835713109,8,37.5361082012546
06-178,Gull Lake,44.920063,-79.359743,Boreal Shield,1.385526,medium,11.61862852,6.7,4.138489,4.56122,2.394357902,19.780784,19.8,19.780784,19.780576,31.64294022,16.50145412,0.139327527,0.197273999,4.403115704,7,6.840999654742477
06-196,Lac Ramsey,46.478829,-80.97293,Boreal Shield,8.096458,large,43.98046797,21,1.593687,0.483097,1.117793351,20.373304,16.1,20.1,8.6,10.67525651,16.50145412,0.126325527,0.360074027,11.83348867,11,122.01762660392554
06-198,Dora Lake,49.186723,-80.970066,Boreal Shield,0.59821,medium,6.685507475,5.8,5.584782,5.958054,3.563263609,19.555737,17.6,19.6,12.4,18.56404142,16.50145412,0.206673527,0.647575527,11.1330029,7,75.48109435142462
06-199,Lillabelle Lake,49.109138,-81.032121,Boreal Shield,1.804898,medium,26.89369923,2.3,5.345653,5.77769,4.767625067,19.076145,19.1,19.076145,19.093103,27.08882739,16.50145412,0.282089527,0.197273999,10.41350085,8,4.989830525557463
06-200,NA,48.238266,-81.040785,Boreal Shield,0.139304,small,1.443713959,2.5,3.849912,4.137632,2.774868471,18.949927,18.9,19,18.1,11.23862478,16.50145412,0.201649527,0.197273999,17.94254465,7,28.456910994183517
06-217,Borden Lake,47.836499,-83.286417,Boreal Shield,16.562945,large,86.60804094,28,0.93551,0.656804,1.671901689,19.076342,14.8,19,11.5,7.681820802,16.50145412,0.107351027,0.313793027,13.97468514,7,42.10278900394832
06-220,Bright Lake,46.272242,-83.30755,Boreal Shield,12.50611,large,190.0917837,11,3.385414,4.16193,3.270922987,21.913357,21.8,21.913357,21.759768,18.17281073,16.50145412,0.113680027,0.197273999,6.25550052,12,135.38347265812394
06-221,Sandbar Lake,47.835215,-83.348195,Boreal Shield,0.293141,small,3.488089897,7,3.786577,1.903913,2.516397511,19.568167,19.1,19.3,18.399795,12.89378092,16.50145412,0.131367027,0.197273999,10.18840229,9,36.85243016017885
06-253,Burnt Berry Pond,49.451178,-56.188657,Boreal Shield,1.594824,medium,193.6890699,18.81,3.14230825,2.453761,0.351753813,19.65511325,15,19.6,8.35,4.972250287,3.833732956,0.025,0.05487447,5.027904582,8,14.899855876803418
06-254,Little Rushy Pond,48.949782,-55.693761,Boreal Shield,0.386505,small,1.454944113,2.82,3.14230825,2.453761,0.9228576,19.65511325,15,19.6,8.35,3.294077872,16.50145412,0.13509597,0.197273999,41.01177181,5,12.985039294128656
06-255,Gull Pond,47.46447,-52.976425,Boreal Shield,0.539411,medium,2.009584157,15,3.14230825,2.453761,0.273376285,19.65511325,15,19.6,8.35,11.26837897,7.127029229,0.09590897,0.06305847,8.511336924,6,7.270474885659007
06-256,Three Island Pond,47.510293,-52.901442,Boreal Shield,0.939543,medium,9.76014958,12.06,3.14230825,2.453761,0.40415776,19.65511325,15,19.6,8.35,9.726387046,10.1008708,0.08048397,0.08494697,8.274806423,3,46.612664487096666
06-257,Octagon Pond,47.524518,-52.881807,Boreal Shield,0.533131,medium,3.84694136,13.61,3.14230825,2.453761,0.93816768,19.65511325,15,19.6,8.35,5.731261842,7.58414299,0.28351747,0.38405247,49.46859484,9,0.31326585506857935
06-258,Hogans Pond,47.583623,-52.852923,Boreal Shield,0.576113,medium,1.985214256,11.82,3.14230825,2.453761,0.213112533,19.65511325,15,19.6,8.35,8.58090733,9.506102485,0.07353697,0.12113747,8.569836169,7,66.21323573146013
06-259,Millers Pond,47.623691,-52.825964,Boreal Shield,0.176077,small,5.185524307,2.62,3.14230825,2.453761,3.293966863,19.65511325,15,19.6,8.35,40.65433938,16.50145412,0.19896597,0.197273999,4.894089365,5,1275.4505215679067
06-260,Great Pond,47.664336,-52.76537,Boreal Shield,0.294057,small,3.234620141,3.55,3.14230825,2.453761,5.8450640720000004,19.65511325,15,19.6,8.35,33.23426876,16.50145412,0.24457797,0.197273999,7.359210211,3,49.18006654916036
06-261,Big Otter Pond,47.399963,-53.04748,Boreal Shield,0.66199,medium,24.80715068,9,3.14230825,2.453761,0.147335893,19.65511325,15,19.6,8.35,7.831939823,8.713078067,0.05151997,0.07451397,6.578187673,8,5.329308075509559
06-262,Stern Pond,47.129687,-55.514258,Boreal Shield,0.297411,small,1.769350718,9,3.14230825,2.453761,0.077227698,19.65511325,15,19.6,8.35,13.27672965,4.503449033,0.12650997,0.13567947,9.528699713,8,12.193228530154526
06-263,Freshwater Pond,47.102985,-55.260614,Boreal Shield,9.708885,large,152.1343916,61,3.14230825,2.453761,1.274516907,19.65511325,15,19.6,8.35,6.356330181,4.637392249,0.131367027,0.197273999,8.556140969,6,21.315667694936426
06-264,Sandy Cove Pond,48.64754,-53.729453,Boreal Shield,0.287402,small,1.29301918,1.54,3.14230825,2.453761,1.969581938,19.65511325,15,19.6,8.35,9.035194491,16.50145412,0.18295947,0.197273999,20.24964379,6,78.44938161405636
06-265,Cobbs Pond,48.971275,-54.629757,Boreal Shield,0.317352,small,2.264240708,1.2,3.14230825,2.453761,1.15576928,19.65511325,15,19.6,8.35,19.08093565,16.50145412,0.21415497,0.197273999,11.22350465,NA,NA
06-266,River Pond,47.915888,-55.586692,Boreal Shield,1.519703,medium,153.0776677,15.5,3.14230825,2.235868,2.418898134,20.840263,19.1,20.8,14.3,10.07639022,9.455683585,0.05623947,0.08269497,5.581311241,9,33.7032318723286
06-267,Tippings Pond,48.930281,-57.880527,Boreal Shield,0.177629,small,0.729521889,25.07,0.587738,0.833502,0.232738418,19.991423,11.3,20,6.4,5.066400945,6.86201657,0.025,0.197273999,4.934469315,4,91.80622864767574
06-268,Grand Pond,51.087718,-56.860944,Boreal Shield,2.518473,medium,25.55017811,9.59,4.306185,4.718645,4.451090738,18.772875,18.5,18.772875,18.207571,11.62815681,12.11585488,0.18666497,0.20029647,16.05284251,9,16.708993395006416
06-270,Curls Pond,52.413575,-56.01578,Boreal Shield,2.843856,medium,40.2375417,10.21,3.14230825,2.453761,1.63987968,19.65511325,15,19.6,8.35,8.524623631,7.660067959,0.11104897,0.10006297,13.02684726,6,39.871815528537375
06-271,Denmark Lake,49.138532,-91.218791,Boreal Shield,0.236511,small,14.26875702,10.3,6.27907,1.859105,2.047045903,22.69109,12.8,23.2,7.1,11.83607141,16.50145412,0.15823047,0.15471697,13.36849572,11,43.035585256477574
06-272,NA,49.453078,-92.08314,Boreal Shield,0.692448,medium,8.347445844,16.3,5.221973,2.186863,2.131771129,21.826715,13.9,21.8,6.3,9.291317201,135.0334265,0.14714947,0.35378447,15.83730991,13,29.841982422157876
06-273,Round Lake,49.778297,-94.444095,Boreal Shield,0.23964,small,4.803411808,8.3,4.389771,13.238722,1.588759449,23.16392,17.1,23.1,6.7,16.56842134,77.70948956,0.28455647,0.39470297,17.17462782,7,213.02705491638875
06-274,Rabbit Lake,49.787686,-94.463764,Boreal Shield,0.902346,medium,2.68573152,8.6,1.553872,5.708477,0.294388267,22.521991,21.6,22.5,15.1,12.81825724,14.62637208,0.19190747,0.20457847,14.97141666,5,63.08580337705064
06-275,Whitemouth Lake,49.230934,-95.682275,Boreal Shield,69.765261,large,292.4205763,1.3,21.780295,2.453761,1.535523319,22.227549,22.2,22.227549,8.35,138.091596,16.50145412,1.17963997,0.197273999,8.542445769,5,164.87436978236497
06-289,Barbe Lake,54.282254,-101.474724,Boreal Plains,1.864435,medium,26.02508381,13.1,4.033529,1.867855,2.794095226,19.566855,16.2,19.5,9.5,8.975882982,18.44962905,0.31176447,0.34434547,34.73357113,9,63.41494785989319
06-291,Camp Lake,55.128342,-101.103371,Boreal Shield,0.527253,medium,110.3437249,4.3,0.122496,0.168745,0.07144704,17.75781,17.7,17.75781,17.742788,2.7646,16.50145412,0.25542447,0.197273999,92.39111264,NA,NA
06-293,Liz Lake,55.487013,-98.050248,Boreal Shield,1.973532,medium,13.60832698,18.3,1.701235,1.311437,2.494765986,19.747569,10.7,19.6,5.6,15.59478455,45.28828312,0.14552247,0.28005497,9.331483198,8,116.09479911576621
06-294,NA,55.892985,-98.996064,Boreal Shield,0.69341,medium,3.449519463,5.5,4.004767,4.245502,2.681290643,21.219832,19.8,21.2,18.1,16.04096785,19.85583506,0.21226447,0.20616297,13.23264731,7,21.121629220860168
06-295,Eden Lake,56.624606,-100.17423,Boreal Shield,67.089036,large,3541.113973,24.3,2.744464,1.508047,2.134472445,18.876172,15.2,18.9,8.2,13.23001307,18.31650268,0.10179197,0.18271097,7.694018854,16,77.21251942999346
06-303,Gull Lake,50.409666,-96.514633,Boreal Shield,1.168386,medium,4.230419896,4.5,4.945789,12.653363,6.413747437,23.359822,22.8,23.4,20.9,29.99256664,29.52996906,1.09321047,0.83921547,36.44938038,6,66.31466917686326
06-304,L226,49.688665,-93.747517,Boreal Shield,0.159116,small,0.907930387,11.6,2.126249,6.802341,2.025127516,23.060682,14.1,23.1,5.8,7.56181912,50.57991516,0.13010647,0.21778947,17.20571042,8,82.3092302840647
06-305,L302,49.674081,-93.762805,Boreal Shield,0.234513,small,0.956096716,10.3,1.364444,63.30166,1.277950649,22.174829,17.1,22.1,7.4,12.47054439,22.49052294,0.131367027,0.29105497,8.556140969,7,86.70541862599528
06-306,L223,49.698298,-93.70868,Boreal Shield,0.281148,small,2.536132148,14.7,0.700822,7.6052,0.835752797,23.005684,13.9,23,6.3,9.550159397,67.52905579,0.13522547,0.56782747,14.15949875,10,56.28511728597486
06-307,L227,49.687897,-93.688896,Boreal Shield,0.051795,small,0.29623019,10.5,45.63923,5.039249,6.010214471,23.608396,10.4,23.8,4.7,40.61028247,116.8948259,0.35754747,1.01088497,8.804358115,4,6.593008095464889
06-308,L373,49.74382,-93.799896,Boreal Shield,0.268799,small,0.750054647,21.4,0.522884,2.211814,0.881290418,22.116041,11.5,22.1,5.3,9.012321702,44.170919,0.131367027,0.16341547,8.556140969,6,82.98925600644816
06-309,Rob Lake,50.401284,-91.254248,Boreal Shield,0.80613,medium,5.15402517,10.4,6.368919,7.460805,4.138424432,20.990056,14.8,20.9,8,14.24399192,19.89685592,0.131367027,0.10078147,8.556140969,9,46.6005591553716
06-310,Ponsford Lake,51.506057,-90.339539,Boreal Shield,0.661879,medium,7.182710736,2.3,3.780875,2.453761,3.137812597,20.165956,20.2,20.165956,8.35,20.62840303,16.50145412,0.51209297,0.197273999,24.82465411,4,17.02975390804729
06-311,L224,49.690256,-93.717327,Boreal Shield,0.26364,small,1.034529023,27.9,0.463306,1.175789,0.611742786,23.104427,10.5,23.1,5.3,6.906744668,23.18577371,0.08621347,0.22091097,12.4825043,8,33.38583596165004
06-312,Botsford Lake,50.147688,-91.647757,Boreal Shield,14.610008,large,4576.667117,24,2.844922,1.78987,2.568139911,21.160817,16.4,21,9.9,12.95824246,15.50757328,0.11477647,0.22065297,8.857410282,16,77.7047637038125
06-313,Pakashkan Lake,49.337978,-90.271499,Boreal Shield,50.508195,large,545.9050986,22.5,3.14230825,2.453761,4.012213029,19.65511325,15,19.6,8.35,13.88930241,18.1012403,0.14493297,0.19789997,10.43486316,16,54.373173047893516
06-314,O'Sullivan Lake,50.407677,-87.080146,Boreal Shield,41.647682,large,2339.990897,41.2,3.14230825,2.453761,2.457443353,18.47248,10.5,18.5,7.6,9.721700714,13.1799234,0.10251847,0.16837997,10.54532257,12,45.132712436844734
06-315,Johnson's Lake,49.711052,-83.684753,Boreal Shield,0.375849,small,0.621654676,10.2,3.492384,10.562053,3.083111238,19.256437,18.1,19.2,11.2,12.24886345,17.36969319,0.22415597,0.23081597,18.30014441,8,43.38461591022791
06-455,NA,47.850967,-55.765996,Boreal Shield,8.73e-4,small,10.15496807,3.5,2.019876,1.882498,4.187196622,21.288005,21.2,21.288005,21.094974,44.5699447,16.50145412,0.09983947,0.197273999,2.240062685,NA,NA
06-456,Kississing lake,55.131569,-101.446955,Boreal Shield,266.299234,large,1899.386433,9.1,3.14230825,2.453761,1.945325227,19.65511325,15,19.6,8.35,12.89174156,16.50145412,0.131367027,0.197273999,8.556140969,NA,NA
07-001,Whitlocks Pond,46.349582,-62.52702,Atlantic Maritime,0.691974,medium,22.65942317,1.8,5.075058,2.35969,5.919125796,23.736424,23.7,23.736424,20.381383,43.70682622,14.52280317,0.184264527,0.20218297,4.215921012,NA,NA
07-002,Larkins Pond,46.421872,-62.428828,Atlantic Maritime,0.323174,small,26.70519335,3.5,3.481515,2.35969,3.427410276,24.775002,24.9,25.2,20.381383,66.3118647,14.52280317,0.182670027,0.20218297,2.754711059,8,2.4194341870451193
07-003,Lake Verde,46.23885,-62.885457,Atlantic Maritime,0.151362,small,1.07121681,1.2,7.705231,2.35969,10.39050896,26.422064,26.4,26.422064,20.381383,50.75632149,14.52280317,0.150250527,0.20218297,2.960232786,3,34.84802670520426
07-004,Mosleys Pond,45.92193,-64.087807,Atlantic Maritime,0.305108,small,15.32525062,2,3.351096,2.35969,7.784671645,22.4441905,21.15,22.413953,20.381383,42.2641981,14.52280317,0.303739027,0.20218297,7.186674317,5,2.7550602927782144
07-005,Long Lake,45.902727,-64.155071,Atlantic Maritime,0.997314,medium,21.92011762,1.6,6.997348,2.35969,4.892940907,22.542311,22.6,22.542311,20.381383,37.73959371,14.52280317,0.113452527,0.20218297,3.006193651,5,6.519716749436378
07-006,Collins Lake,46.110489,-64.150702,Atlantic Maritime,0.653799,medium,2.399315578,4.6,4.518329,4.932644,3.657738774,23.021338,23,23.021338,22.865604,13.37355531,14.52280317,0.196788527,0.20218297,14.7147503,7,49.574710848799995
07-007,Blair Lake,45.799248,-64.210287,Atlantic Maritime,0.545317,medium,8.609875434,4.5,19.033262,14.287272,53.84846532,21.456386,21.3,21.456386,21.238842000000002,105.8243234,14.52280317,0.619114027,0.20218297,5.850394382,6,382.12373290613476
07-008,Morice Pond,45.931138,-64.368213,Atlantic Maritime,1.48072,medium,50.95360273,3,3.551193,2.35969,2.753357227,19.99702,20,19.99702,20.381383,22.28081721,14.52280317,0.204180527,0.20218297,9.163960417,7,64.96987601100645
07-009,Black River Lake,44.930654,-64.418764,Atlantic Maritime,7.538296,large,379.1462937,12,6.182466,1.839559,6.046694045,22.063319,20.7,22.1,15.4,13.33342029,14.52280317,0.155401027,0.104058027,11.65500101,8,175.7577594367941
07-010,Gaspereau Lake,44.953072,-64.563372,Atlantic Maritime,22.033073,large,194.8051746,14.6,4.813244,4.566316,3.055904569,21.36674,21.2,21.36674,20.865354,12.65124953,14.52280317,0.097795527,0.20218297,7.73010814,6,2.0080956857619725
07-011,Wiles Lake,44.373332,-64.574322,Atlantic Maritime,1.038049,medium,3.845618832,6.2,1.567282,1.905151,1.416843947,22.747537,22.7,22.747537,22.646818,8.195590277,14.52280317,0.141169027,0.20218297,17.22499811,6,99.8988018212639
07-013,Colwell Round Lake,44.845846,-64.598487,Atlantic Maritime,0.142108,small,1.890110061,2.05,3.187881,2.35969,2.279296036,22.026265,22,22.026265,20.381383,11.25401455,14.52280317,0.162067527,0.20218297,14.400863470000001,6,27.288155026862405
07-014,Tupper Lake,45.017746,-64.589997,Atlantic Maritime,0.348926,small,1.539319069,2.95,2.015892,2.35969,1.758942329,21.387427,21.4,21.387427,20.381383,7.84960518,14.52280317,0.125646527,0.20218297,16.00673207,4,25.950077671155228
07-015,Spectacle Lake,44.259495,-64.610661,Atlantic Maritime,0.964773,medium,11.3940124,3.5,1.617134,2.35969,1.131481067,21.932004,21.9,21.932004,20.381383,11.04342983,14.52280317,0.101245027,0.20218297,9.167896978,6,113.0827074197373
07-016,Folly Lake,46.036878,-64.64533,Atlantic Maritime,0.184764,small,1.11576678,2.35,146.04655,146.046535,13.55023416,21.408843,21.4,21.408843,21.405831,49.67715044,14.52280317,0.290282027,0.20218297,5.843371136,6,143.03079389095598
07-019,Caribou Lake,44.525535,-64.54906,Atlantic Maritime,2.793244,medium,13.25360637,44,0.870678,0.860053,1.086905422,22.460475,10.6,22.4,6.6,3.694458525,14.52280317,0.058951527,0.066678527,15.95674349,5,41.819250857222684
07-020,NA,47.58432,-64.955436,Atlantic Maritime,0.153174,small,15.59888872,3,3.351096,2.35969,2.889982365,22.4441905,21.15,22.413953,20.381383,34.69702332,14.52280317,0.050417027,0.20218297,1.453064908,2,180.5821111381484
07-021,Kent Lake,46.636229,-65.117947,Atlantic Maritime,0.177884,small,0.927924059,1.3,6.783627,6.533033,4.924214031,21.68196,21.8,21.68196,22.066833,35.40178096,14.52280317,0.230026027,0.20218297,6.497583476,4,50.94971071639591
07-022,Lake Mulgrave,44.496459,-65.471246,Atlantic Maritime,14.535363,large,110.108524,6.3,3.605443,3.780465,1.941166934,21.440873,21.3,21.440873,21.16621,15.74492983,14.52280317,0.172370527,0.20218297,10.94768467,7,65.4009707853348
07-023,Goose Lake,43.603816,-65.527065,Atlantic Maritime,0.605484,medium,27.11620355,1.45,9.483132,2.35969,4.148527645,20.641545,20.6,20.641545,20.381383,23.1707193,14.52280317,0.147728027,0.20218297,6.375634054,7,128.78115664699797
07-024,Barrington Lake,43.612856,-65.573869,Atlantic Maritime,1.570814,medium,167.120011,2,3.351096,2.35969,2.268774293,22.4441905,21.15,22.413953,20.381383,12.68151197,14.52280317,0.137765027,0.20218297,10.8634544,7,1.8205783877453465
07-025,French Lake,43.639494,-65.707216,Atlantic Maritime,5.581614,large,46.85516126,4.9,5.392603,4.999615,1.863639965,21.614046,21.1,21.5,20.6,16.7050499,14.52280317,0.706828527,0.20218297,42.31226673,4,40.10509270041561
07-026,Crocker Lake,46.89332,-65.727509,Atlantic Maritime,0.832092,medium,3.590601148,1.6,3.351096,2.35969,2.849218489,22.4441905,21.15,22.413953,20.381383,15.71206457,14.52280317,0.072547027,0.20218297,9.223701326,NA,NA
07-028,Everitts Lake,44.448946,-65.861249,Atlantic Maritime,0.493994,small,1.839124361,6.5,1.453885,2.107049,1.397548836,22.039899,22,22.039899,22.047169,39.28906827,14.52280317,0.063876527,0.20218297,1.625809158,6,79.14527243455018
07-029,Ritchie Lake,45.415706,-65.96754,Atlantic Maritime,0.24665,small,6.017051023,12,5.930681,2.048964,3.711119289,23.210814,14.5,23.2,6.2,10.92211333,14.52280317,0.389636027,0.584283527,35.67405091,4,0.678398249150062
07-030,Lily Lake,45.290432,-66.057534,Atlantic Maritime,0.10423,small,0.689824262,7.5,1.973301,6.666409,1.55326432,23.130673,20.9,23.1,13.6,10.05623375,14.52280317,0.291488527,0.20218297,28.98585438,11,63.52237321076502
07-031,Lac Innocent,44.273871,-66.075345,Atlantic Maritime,0.110851,small,0.343908222,2.85,2.854939,2.35969,2.834538453,22.427906,22.4,22.427906,20.381383,13.27196361,14.52280317,0.162651527,0.20218297,12.25527223,5,68.17037402212672
07-032,Clare Lake,44.193053,-66.103988,Atlantic Maritime,0.536435,medium,2.406643423,3.5,146.046903,146.046823,1.980733725,21.225606,21.1,21.225606,21.030331,11.38514794,14.52280317,0.788581027,0.20218297,69.26401229,9,284.1615016697318
07-033,Napadogan Lake,46.416483,-66.943837,Atlantic Highlands,0.301346,small,8.063231557,1.65,33.584682,24.565357,3.095361102,20.770496,20.8,20.770496,20.772828,16.51464127,NA,0.297665027,0.164447027,18.0243108,8,5.817360645234466
07-035,McKendrick Lake,46.852777,-66.361613,Atlantic Maritime,0.750216,medium,7.734242522,5.8,3.676132,4.89875,3.32674922,21.95732,21.9,21.95732,21.900382,14.50920562,14.52280317,0.167511027,0.20218297,9.223701326,6,191.85808974037607
07-037,Moose Lake,45.448897,-66.47072,Atlantic Maritime,0.724355,medium,3.767282399,4,2.097405,2.714446,1.429854365,22.610004,22.6,22.610004,22.505768,9.675139667,14.52280317,0.102824027,0.20218297,10.62765299,5,42.79647183897768
07-040,McDougall Lake,45.324348,-66.774486,Atlantic Maritime,3.104366,medium,123.1218583,4.1,3.092472,3.280852,2.448714987,21.162719,21.1,21.162719,21.080994,36.26183688,14.52280317,0.095681027,0.20218297,2.638615008,4,18.679185603585356
07-046,Oromocto Lake,45.586373,-67.003961,Atlantic Maritime,41.646112,large,141.2256403,13.5,1.290987,2.173427,2.14312768,20.896417,20.7,20.896417,20.462766,29.56907595,14.52280317,0.068460527,0.20218297,2.315274482,5,1.8091293753870261
07-047,Magaguadavic Lake,45.716645,-67.20662,Atlantic Maritime,26.997892,large,377.9723881,9.8,3.351096,3.254161,2.37263712,20.67044,20.4,20.67044,20.043136,30.30969088,14.52280317,0.148418027,0.20218297,4.896718597,10,12.186088221206711
07-049,NA,46.897616,-67.432087,Atlantic Maritime,0.177654,small,7.838971939,2.4,8.048298,8.099886,3.608595307,23.326633,22.8,23.8,22.951108,14.74768686,14.52280317,0.025,0.20218297,1.695181098,3,146.14174079639014
07-051,Blue Bell Lake,46.950127,-67.537914,Atlantic Maritime,0.104791,small,4.306177817,0.9,3.351096,2.35969,8.327650491,22.977356,22.9,22.977356,22.959083,15.87103823,14.52280317,0.167511027,0.20218297,9.223701326,NA,NA
07-052,Davidson Lake,45.93731,-67.158731,Atlantic Maritime,2.101855,medium,8.258981657,7.15,2.266206,2.913102,1.441289671,20.528936,20.3,20.528936,19.987543,13.9404818,14.52280317,0.179563527,0.20218297,12.88072604,8,51.57329674018307
07-055,Lake Edward,46.921096,-67.65543,Atlantic Maritime,0.154375,small,2.147418219,1.81,4.700104,4.869682,8.605240871,23.300359,23.2,23.300359,23.297775,15.67919931,14.52280317,0.167511027,0.20218297,9.223701326,4,252.8401735932099
07-057,Piries Lake,46.936727,-67.758306,Atlantic Maritime,0.243147,small,21.60113299,1.3,2.611755,2.989647,5.931726685,21.444336,21,21.444336,21.113475,14.75945,14.52280317,0.340453527,0.20218297,23.06681665,NA,NA
07-222,Big Lake,45.710947,-63.710239,Atlantic Maritime,1.253929,medium,10.13030276,11,3.351096,12.791577,3.79604928,19.070109,18.5,19,18.1,16.56842134,19.51497885,0.167511027,0.09263947,9.223701326,7,34.16480158966118
07-223,Kennedy Lake,45.716514,-63.228122,Atlantic Maritime,0.146355,small,1.55098649,1.5,3.351096,2.35969,2.973085227,20.984246,20.6,20.984246,19.9,38.53366819,14.52280317,0.23382147,0.20218297,6.067978497,7,33.75534089119032
07-224,Folly Lake,45.537496,-63.544962,Atlantic Maritime,0.865181,medium,8.678832888,33,0.852475,0.528252,0.904444551,18.032253,11.5,18,6.5,12.6173556,14.42547043,0.025,0.07154597,1.98139775,5,109.19127218464153
07-225,Little Dyke Lake,45.385397,-63.560296,Atlantic Maritime,0.116738,small,0.208008004,2.5,3.351096,2.35969,0.613757796,22.888668,22.9,22.888668,22.866281,20.54180949,14.52280317,0.08883747,0.20218297,4.324714921,4,181.42938150714843
07-226,Trout Lake,45.572019,-63.488455,Atlantic Maritime,0.150297,small,3.483060178,3.13,2.305116,2.545953,0.101830933,20.962989,18.7,20.962989,18.518125,8.197519339,14.52280317,0.07561147,0.20218297,9.223701326,10,151.20119195367786
07-227,Shortts Lake,45.219083,-63.31812,Atlantic Maritime,2.125839,medium,11.85661446,13,3.351096,2.35969,0.25403392,23.84441,20.6,23.8,18,18.93459631,12.28251952,0.12024047,0.11432297,6.350305443,NA,NA
07-228,Fletchers Lake,44.842279,-63.611864,Atlantic Maritime,1.042767,medium,147.0748921,9.22,3.351096,1.96422,3.028828409,23.859809,21,23.7,17.3,20.5777894,14.53656002,0.28005547,0.39867247,13.60959939,7,12.612452813474974
07-229,First Lake,44.770926,-63.661881,Atlantic Maritime,0.852254,medium,3.886996086,23.43,3.351096,1.238343,2.691864889,24.050647,12.9,23.8,7.4,13.02625268,28.67852879,0.37754747,0.56057347,28.98358256,8,18.373553511110444
07-230,Fenerty Lake,44.831734,-63.719825,Atlantic Maritime,0.671984,medium,23.34169884,8.5,3.351096,1.610312,4.053800463,22.968487,18.9,22.9,12.8,28.95313013,27.99202546,0.52074347,0.22181147,17.98573998,6,400.2177264083446
07-231,Moore Lake,44.961142,-63.757733,Atlantic Maritime,0.108894,small,0.761033205,2.08,3.351096,2.35969,4.294445938,22.260976,22.3,22.260976,22.392071,19.78284771,14.52280317,0.13350247,0.20218297,6.748394971,8,319.5778495148148
07-232,Pigott Lake,44.929835,-63.876439,Atlantic Maritime,0.915334,medium,12.8627732,14,2.48504,1.413371,0.688355058,22.513122,17.3,22.5,12.4,9.335962012,14.49243764,0.07205397,0.11803947,7.717894515,8,44.04961287080646
07-233,Springfield Lake,44.808913,-63.742615,Atlantic Maritime,0.842715,medium,5.475933685,4,19.527805,2.35969,1.409141653,21.664108,21.6,21.664108,20.381383,14.26195869,14.52280317,0.22896347,0.20218297,16.05413919,7,182.5649592779426
07-234,Halfway Lake,44.745336,-63.785165,Atlantic Maritime,0.14031,small,1.918792642,15,3.351096,1.720727,2.705694365,22.34345,9.2,22.4,5.6,12.77361243,17.57292958,0.20036147,0.30511847,15.68557611,3,122.17022850957517
07-235,Kearney Lake,44.696009,-63.698055,Atlantic Maritime,0.6321,medium,29.11849737,26,1.463839,1.238181,0.891024605,23.474896,10.9,23.4,6.7,10.96674266,5.955268293,0.28920047,0.25898447,26.37068079,9,26.412271204160273
07-236,Governor Lake,44.642918,-63.701964,Atlantic Maritime,0.393824,small,7.678023414,15,3.351096,1.660196,2.371315237,22.636012,14.3,22.7,8.3,12.69926115,24.37458257,0.48507397,0.53008347,38.19702298,7,30.86164834908149
07-237,Five Island Lake,44.664418,-63.806279,Atlantic Maritime,1.404367,medium,20.57387214,9.6,3.351096,1.674572,1.704301725,23.078051,20.6,23,17.1,15.97821703,46.66491626,0.39314247,0.26641247,24.60490237,6,86.79567930864198
07-238,First Chain Lake,44.637112,-63.651611,Atlantic Maritime,0.349316,small,3.732916173,11.42,0.265535,0.378885,0.22596544,23.296688,23.2,23.296688,22.977232,10.71291157,8.152727663,0.14834247,0.20218297,13.84707314,3,45.995375162364056
07-239,Lake Banook,44.692693,-63.553527,Atlantic Maritime,1.499387,medium,14.03419001,6.22,1.943982,1.010434,1.777024605,24.515845,23.6,24.5,22.4,14.39925936,12.27109901,0.41081547,0.29588447,28.53031949,9,94.63649273401307
07-240,Morris Lake,44.651541,-63.497262,Atlantic Maritime,1.672564,medium,18.0844465,12.39,2.64804,1.13865,1.555689991,22.375575,20.1,22.3,17.1,15.77226603,14.52280317,0.25583247,0.20218297,16.220400389999998,8,1.3118561349521465
07-241,Bissett Lake,44.655567,-63.469954,Atlantic Maritime,0.923918,medium,10.07622548,8.84,3.351096,2.35969,3.170131627,22.370942,20.4,22.2,17.8,25.54202829,70.20916137,0.29243097,0.47269797,11.44901128,3,142.66621997071033
07-242,Loon Lake,44.702019,-63.504617,Atlantic Maritime,0.791676,medium,2.981503993,5.62,3.351096,2.35969,2.502109038,22.90532,22.4,22.9,20.3,20.0046135,14.50904632,0.27768597,0.18255447,13.88109648,5,146.4288103433581
07-243,Lake Charles,44.722618,-63.551142,Atlantic Maritime,1.439753,medium,19.62880411,27.87,3.962607,1.396645,2.277610667,22.25296,13.3,22.2,7.2,22.77460008,15.22306336,0.37152547,0.56031947,16.31315012,4,39.45480292257737
07-244,West Pogue Lake,45.228384,-62.762945,Atlantic Maritime,0.157091,small,2.345262229,1.9,3.351096,2.35969,2.9287616,25.39016,25.4,25.39016,20.381383,50.57555522,14.52280317,0.68101147,0.20218297,13.46522973,11,210.44776070693547
07-245,Pringle Lake,45.376743,-61.94841,Atlantic Maritime,0.590755,medium,5.054221603,21.41,3.351096,0.865339,0.900900551,23.899253,15.5,23.9,9.5,11.0437149,11.08833323,0.167511027,0.07643347,9.223701326,7,21.170819867214767
07-246,Gaspereaux Lake,45.556219,-62.056197,Atlantic Maritime,0.920858,medium,6.817741755,4.2,2.535083,44.415636,3.586685511,25.247934,25.1,25.247934,25.003607,81.22834789,14.52280317,0.30186197,0.20218297,3.716214571,6,37.23540846002406
07-247,MacPherson Lake,45.433201,-61.420529,Atlantic Maritime,0.911974,medium,4.437893703,26.5,0.964126,0.578182,1.184042525,24.610759,14.1,24.5,8.3,3.904782109,5.934916121,0.025,0.025,6.402405897,NA,NA
07-248,Shepherd Lake,45.522507,-61.560681,Atlantic Maritime,0.348078,small,4.050221576,4.05,3.351096,9.22095,3.122390009,24.483544,24.2,24.4,23.85058,13.18539474,15.97404036,0.09913197,0.11174047,7.518316437,10,11.257202423883964
07-249,Embrees Pond,45.622179,-61.362123,Atlantic Maritime,0.104474,small,8.059480133,1.04,100.684891,2.35969,2.593089671,29.727926,30,31.1,29.1,248.6140126,14.52280317,0.67577997,0.20218297,2.718189385,2,38.37469562768036
07-250,Lake Ainslie,46.132703,-61.185324,Atlantic Maritime,58.770265,large,304.8902354,16.05,3.351096,2.35969,4.039826977,22.4441905,21.15,22.413953,20.381383,16.51630399,53.92093468,0.025,0.20218297,1.513655841,6,36.30626838428566
07-251,NA,46.170166,-60.014699,Atlantic Maritime,0.177268,small,8.1828082,15.27,3.351096,2.35969,0.175089351,22.4441905,21.15,22.413953,20.381383,9.153647188,10.69563911,0.025,0.20218297,2.731151801,2,15.273459672451963
07-252,Johnson Lake,46.171199,-60.318258,Atlantic Maritime,0.436753,small,11.47268982,12.26,3.351096,2.35969,0.204890454,22.4441905,21.15,22.413953,20.381383,8.977419539,13.73556605,0.06930797,0.025,7.720255214,9,27.001070200892617
08-097,Lac Saint-Augustin,46.749625,-71.392292,Mixedwood Plains,0.696418,medium,6.047797728,5.5,82.576771,66.216445,82.47954351,20.356985,20.3,20.356985,20.153683,194.5662154,NA,0.620061027,0.345402027,3.18688949,6,161.30697357923535
08-118,Lac Saint-Paul,46.304437,-72.476705,Mixedwood Plains,2.860533,medium,74.48332806,3,31.050848,37.444929,67.50067071,21.644427,21.6,21.644427,21.531214,126.5866031,NA,0.561163527,0.345402027,4.433040411,10,2681.75376058855
08-120,Lac des Chicots,46.796216,-72.523542,Mixedwood Plains,0.711466,medium,16.63863971,21,9.530348,1.300659,35.0500925,21.322099,10.2,21.5,5.6,33.21148085,NA,0.406795527,0.163847527,12.24864163,8,5.260375430601927
08-134,Loch Garry,45.254158,-74.709611,Mixedwood Plains,3.873626,medium,16.33170499,4,5.540531,19.591385,11.23500927,17.356199,17.4,17.9,17,20.4826379,NA,0.435886527,0.345402027,21.28078078,8,189.14201452484585
08-135,Lac Georges,45.605917,-74.97345,Mixedwood Plains,0.606503,medium,33.69525579,10.2,4.048712,3.806568,6.764739947,18.189915,15.3,18.1,9.3,88.91201816,NA,0.819015527,0.459408027,9.2115278,7,746.5419821733374
08-138,Lac Écho,45.891675,-74.028795,Boreal Shield,1.649948,medium,12.26801858,9,3.742816,9.465031,5.444135289,18.119072,15.7,18.5,9,17.17147802,16.50145412,0.204826527,0.588214027,11.92829917,11,124.67796696765237
08-143,Constance Lake,45.409983,-75.979067,Mixedwood Plains,1.504883,medium,88.22393607,3.5,6.54937,4.680855,9.644326577,17.176551,17.2,17.176551,17.107565,28.81716213,NA,0.315606527,0.345402027,10.95203357,4,78.64866207406175
08-144,Charleston Lake,44.544584,-76.047291,Mixedwood Plains,27.479198,large,299.8367584,30,1.669234,0.933058,1.616946062,22.40519,13.2,22.1,8.1,11.05026573,NA,0.078253527,0.206366027,7.081596852,9,31.433196113536646
08-145,Cedar Lake,44.418957,-76.399919,Mixedwood Plains,0.154103,small,0.886357715,14,0.606556,10.314539,1.585601351,24.416147,14.4,24.3,6.5,7.43157524,NA,0.212853527,0.687504027,28.64177784,5,219.51314479270783
08-147,Mississippi Lake,45.035782,-76.184422,Mixedwood Plains,25.220425,large,2975.2728,7.5,4.11062,3.707008,4.559804907,18.020211,18,18.020211,17.957275,11.1865275,NA,0.187746527,0.345402027,16.78327139,8,225.4524842723368
08-148,Upper Rock Lake,44.494194,-76.413815,Mixedwood Plains,0.840082,medium,27.21410065,43,3.189801,1.280752,3.562050773,23.367993,8,23.4,5.1,11.0026165,NA,0.070914527,0.180736027,6.445242094,NA,NA
08-149,Newboro Lake,44.630897,-76.318336,Mixedwood Plains,16.827481,large,319.1491088,24,7.015627,0.939681,0.522192101,22.094315,14.3,22.1,7.8,15.97175198,NA,0.095889027,0.341323027,6.003663662,NA,NA
08-150,Round Lake,44.414982,-76.429486,Mixedwood Plains,0.56006,medium,2.756251115,25,1.263898,1.146929,0.759361067,25.111508,10,25.1,5.3,9.322965984,NA,0.163356027,0.211732027,17.52189456,NA,NA
08-151,Devil Lake,44.577578,-76.440764,Mixedwood Plains,11.00506,large,183.1853182,41,1.029461,0.916006,0.913312427,22.462914,10.3,22.2,6.9,9.447704104,NA,0.060169027,0.098736527,6.368640078,11,48.31838339359697
08-152,Christie Lake,44.603507,-76.467922,Mixedwood Plains,0.325842,small,10.25584718,6,1.928833,5.506498,4.212776427,23.601382,20.4,24.1,12.9,11.81014497,NA,0.065987027,0.064698527,5.587317274,NA,NA
08-153,Lac Green,45.651003,-76.495042,Mixedwood Plains,0.554015,medium,3.733735801,11.5,1.067993,5.69921,0.856923449,18.279593,12.9,18.2,8.5,10.86448589,NA,0.152948527,0.184985027,14.07784303,10,266.68328587291745
08-154,Lacs Healy,45.844902,-76.653917,Mixedwood Plains,0.122664,small,0.492521997,21,3.539338,2.206084,3.708063573,19.439477,8.4,19.4,4.7,13.49604523,NA,0.188696527,0.457073527,13.98161637,8,26.447116005623077
08-155,Varty Lake,44.391856,-76.813362,Mixedwood Plains,6.348294,large,22.77984837,2.3,1.610178,1.871094,3.762782934,25.485186,25.4,25.485186,25.352205,10.50354715,NA,0.313817527,0.345402027,29.87729027,7,14.886034482761145
08-157,Camden Lake,44.409097,-76.857259,Mixedwood Plains,6.186454,large,84.52046154,1.3,3.843809,3.716687,4.715528267,24.519884,24.5,24.519884,17.909489,12.4252504,NA,0.526067027,0.345402027,42.33854531,NA,NA
08-160,Stoco Lake,44.473281,-77.28962,Mixedwood Plains,5.751264,large,2225.003462,13.5,4.316572,2.647452,2.73540096,22.10418,18.6,22.1,13.3,24.17180978,NA,0.193075027,0.285048527,7.98761155,10,49.04356940998888
08-162,Little Lake,44.046054,-77.824936,Mixedwood Plains,0.69258,medium,4.151749303,8.1,4.987702,7.259705,3.463653583,19.583931,19.5,19.583931,19.445381,13.30947924,NA,0.376210027,0.358392527,28.26632208,6,12.567953555436432
08-163,Seymour Lake,44.380086,-77.814912,Mixedwood Plains,7.515047,large,9490.680918,7,4.523079,5.487378,6.96849632,23.214573,22.5,23,22.2,31.63334061,NA,0.222551527,0.272290527,7.03534697,12,22.08815120093387
08-164,Stevenson Lake,44.274574,-77.910623,Mixedwood Plains,0.180712,small,2.665496296,6.3,1.380481,16.536403,0.425216996,22.77585,20.1,22.7,13.4,14.25581601,NA,0.212271527,0.325680527,14.89017022,12,108.94899863085257
08-166,Rice Lake,44.1779,-78.179116,Mixedwood Plains,99.66168,large,9332.304888,6,7.065041,11.408081,11.5860133,22.671388,22.6,22.671388,22.5656,6.62234969,NA,0.259138027,0.345402027,39.13082805,NA,NA
08-168,Sturgeon Lake,44.474286,-78.687323,Mixedwood Plains,46.375638,large,4990.01111,9.5,4.12349,4.95651,3.112151787,19.169084,19.1,19.169084,19.026601,17.77275957,NA,0.139287027,0.13582402700000001,7.837107483,10,8.89276593344881
08-169,Lake Scugog,44.191502,-78.809868,Mixedwood Plains,69.416247,large,558.8851371,5,4.845671,5.13284,4.712909645,22.751028,22.6,22.751028,22.443102,19.08543984,NA,0.334625027,0.345402027,17.53300053,11,34.31077604425816
08-170,Head Lake,44.740317,-78.912505,Mixedwood Plains,9.79056,large,128.490586,5.1,3.201314,4.674457,4.872511716,18.45273,18.4,18.45273,18.378691,11.08847436,NA,0.177403527,0.179509527,15.99891213,9,104.05649070747539
08-172,NA,42.992977,-80.607949,Mixedwood Plains,0.140998,small,49.12602298,1.2,3.506376,3.716687,110.3343741,22.561189,20.2,22.561189,17.909489,144.2970567,NA,0.616572527,0.345402027,4.272939041,NA,NA
08-175,Sunova Lake,43.194682,-81.02096,Mixedwood Plains,0.253105,small,0.834449837,5.5,2.881797,2.900415,8.716727893,23.589566,23.6,23.589566,23.585398,18.64808002,NA,0.424094027,0.345402027,22.74196735,7,18.45528719588257
08-177,Lake St. John,44.687068,-79.325113,Mixedwood Plains,6.7941,large,59.01395796,7.2,19.728037,21.779428,32.38979733,19.287032,19.3,19.287032,19.28573,54.68407903,NA,0.346351527,0.345402027,6.333681268,9,43.35675068004088
08-179,Wilcox Lake,43.949049,-79.436034,Mixedwood Plains,0.583988,medium,7.558540907,17,2.139285,1.491709,5.278000445,24.409464,15.4,24.3,9.5,18.43997973,NA,0.339777027,1.414506527,18.42610631,10,40.31877755835662
08-180,Eversley Lake,43.957772,-79.500823,Mixedwood Plains,0.144928,small,2.241087895,1,3.506376,3.716687,26.29478676,22.561189,20.2,22.561189,17.909489,57.16478497,NA,0.579401027,0.345402027,10.13562856,NA,NA
08-181,Bass Lake,44.603455,-79.506646,Mixedwood Plains,5.713688,large,46.91585536,9.3,1.603994,5.21045,4.621376,20.863235,20.8,20.863235,20.676367,13.8138624,NA,0.219915527,0.225114527,15.91991586,7,88.35208561316587
08-182,Little Lake,44.426424,-79.671388,Mixedwood Plains,2.353991,medium,114.4252369,1.7,14.597908,16.128247000000002,16.55557839,21.133259,21.1,21.133259,21.153254,29.03492453,NA,0.455305527,0.453014527,15.68130568,9,33.803702689686666
08-183,NA,43.747219,-79.735133,Mixedwood Plains,0.269823,small,1.572675991,12,1.080929,83.189804,1.322431787,23.734783,20.4,23.5,11.7,14.81069746,NA,0.336388527,0.561694527,22.71253787,6,194.86688575670186
08-184,Heart Lake,43.740539,-79.795426,Mixedwood Plains,0.18508,small,1.721588918,9.5,6.790882,2.534192,17.91859001,23.461351,16.7,23.4,8.9,28.94570573,NA,0.457351027,0.633361027,15.80030666,10,175.2110602537667
08-185,Orr Lake,44.608247,-79.802979,Mixedwood Plains,3.203372,medium,16.73955798,2.2,3.506376,3.716687,3.976269556,22.561189,20.2,22.561189,17.909489,16.35674405,NA,0.273057527,0.345402027,16.69388028,7,58.89100179472028
08-186,Lake Niapenco,43.105298,-79.850926,Mixedwood Plains,1.889682,medium,46.07781779,6.2,2.812424,5.676925,25.20034443,23.397736,23.3,23.397736,23.209314,34.94519211,NA,0.354370027,0.316509027,10.1407377,11,122.75216523395153
08-187,Farden Lake,44.276532,-80.690839,Mixedwood Plains,0.115673,small,0.986008021,1.4,4.542473,10.702636,3.083547769,22.650283,22.8,22.650283,22.750051,9.646254054,NA,0.279239277,0.345402027,15.74080617,5,68.17032588098746
08-188,Fairy Lake,43.621242,-80.048136,Mixedwood Plains,0.266177,small,20.51781485,6.4,6.124443,14.071339,2.298606898,21.936108,20.5,21.8,17.963331,23.41454536,NA,0.643317027,0.655329027,27.47510222,8,36.6988870714452
08-189,Schmidt Lake,44.167604,-81.311053,Mixedwood Plains,0.25076,small,5.334288272,2,3.506376,3.716687,11.32781658,22.561189,20.2,22.561189,17.909489,30.08878597,NA,0.409873027,0.345402027,13.62211913,NA,NA
08-190,Pinehurst Lake,43.269235,-80.390052,Mixedwood Plains,0.109015,small,0.506532329,7.5,1.841189,3.716687,6.939278009,24.122299,20.2,24.122299,17.909489,18.02897882,NA,0.287767527,0.391556527,15.96138804,6,70.98060526378396
08-191,Alder Lake,43.353353,-80.537259,Mixedwood Plains,0.161311,small,73.17186483,1.5,3.506376,3.716687,51.27890781,22.561189,20.2,22.561189,17.909489,56.43881087,NA,1.724406027,0.345402027,30.55354995,4,199.8627886374282
08-192,Green Lake,43.839801,-80.008756,Mixedwood Plains,0.143459,small,0.886338511,13,1.847204,5.437136,4.079837049,21.268068,14.3,21.2,8,20.42697355,NA,0.184859527,0.276965527,9.049775607,7,39.519856453220086
08-193,Dankert Lake,44.205289,-81.052711,Mixedwood Plains,0.232643,small,1.81889904,8,3.389465,6.762863,4.037907591,23.674579,18.7,23.7,10.7,21.96599904,NA,0.328828027,0.800185527,14.9698644,9,68.0204374394375
08-194,Irish Lake,44.262603,-80.639939,Mixedwood Plains,0.26713,small,0.976951289,5.5,1.70717,2.339584,3.024654364,23.417298,23.4,23.417298,23.415389,12.59263684,NA,0.238723527,0.630097527,18.95738994,11,41.3095612430704
08-195,Carson Lake,44.621868,-81.25951,Mixedwood Plains,0.264709,small,8.07750168,1,3.506376,3.716687,2.65771648,22.561189,20.2,22.561189,17.909489,20.57180879,NA,0.231542027,0.345402027,11.25530717,7,69.835309334515
08-197,Copps Lake,44.258274,-80.965301,Mixedwood Plains,0.113732,small,1.152159363,10.1,134.952121,134.952161,0.891056107,21.640195,14.2,21.6,9.4,8.562621064,NA,0.138533527,0.715449527,16.17886929,9,123.21157399701441
08-201,Pike Lake,43.967383,-80.816926,Mixedwood Plains,0.360691,small,5.38425396,3.1,3.851584,3.266449,4.212776427,23.03085,22.8,23,22,15.99127344,NA,0.279239277,0.345402027,15.74080617,NA,NA
08-202,Boat Lake,44.725929,-81.227067,Mixedwood Plains,5.624434,large,214.7562237,1.6,3.506376,3.716687,2.492676338,22.561189,20.2,22.561189,17.909489,16.0107949,NA,0.329375027,0.345402027,20.5720596,6,54.457696405036465
08-203,Arran Lake,44.481854,-81.259812,Mixedwood Plains,4.03544,medium,27.71320717,5.1,3.895542,4.544954,4.305660729,24.132372,24,24.132372,23.894648,15.43101205,NA,0.291886027,0.345402027,18.91554657,6,73.5534121196852
08-204,Bartley Lake,45.215178,-81.488534,Mixedwood Plains,0.085737,small,4.782743296,4.1,1.946449,3.638912,2.205061049,23.102966,22.7,23.1,22,17.48921804,NA,0.284160027,0.345402027,16.24772625,9,296.53438855728206
08-205,Gillies Lake,45.204954,-81.326861,Mixedwood Plains,2.24816,medium,15.07106514,31,0.610714,0.918967,0.983562383,21.34004,12.1,21.2,7.5,9.942232806,NA,0.137971027,0.307845027,13.87726778,7,245.21192618867425
08-206,Cyprus lake,45.231341,-81.531897,Mixedwood Plains,0.763525,medium,16.76740468,8.3,0.718352,2.895253,1.609858063,23.446825,22.6,23.4,21.8,9.230197402,NA,0.279239277,0.349481027,15.74080617,11,68.14871882388711
08-207,Emmett Lake,45.214271,-81.459651,Mixedwood Plains,0.986234,medium,24.87559831,10,0.582657,1.575104,1.506499271,22.561189,22.3,22.561189,21.889322,11.43326093,NA,0.267177027,0.345402027,23.36840108,7,28.91580154911837
08-208,Clam Lake,44.072133,-81.413948,Mixedwood Plains,0.406706,small,28.5289413,14,5.266646,3.077162,8.256417422,22.782032,13.3,22.7,6.8,11.91552088,NA,0.343096027,0.258381027,28.79404353,7,117.27914197376414
08-209,Cameron Lake,45.216979,-81.55796,Mixedwood Plains,1.643527,medium,14.18570071,13,0.958643,1.185746,2.343812587,23.951123,21.8,23.7,17.909489,11.22152565,NA,0.162263527,0.400280527,14.46002372,8,30.10468631302917
08-210,NA,43.575686,-81.661215,Mixedwood Plains,0.176793,small,1.932318245,9,1.065269,2.166242,1.334087609,23.587387,22.6,23.5,19.930643,14.02194162,NA,1.610735027,0.780736027,114.8724671,8,110.81421179010101
08-211,Sucker Lake,45.723555,-81.878484,Mixedwood Plains,2.282159,medium,5.562944574,3.2,3.181801,3.716687,5.333105707,21.0028045,21,21.0028045,20.986362,12.28480591,NA,0.237263027,0.345402027,19.31353484,8,21.977531213695144
08-212,Pike Lake,45.87402,-81.985603,Mixedwood Plains,2.328509,medium,36.04794186,12,4.350785,1.727774,6.217373085,22.108564,19.4,21.9,12.2,18.23118621,NA,0.226902527,0.532362027,12.44584551,11,55.615359243426035
08-213,Bass Lake,45.889627,-81.937381,Mixedwood Plains,2.739478,medium,66.29574808,11,3.109961,1.401983,4.212776427,23.197095,21.3,23.2,14.4,25.54182576,NA,0.196275527,0.465159027,7.684475216,NA,NA
08-214,NA,44.007233,-78.029579,Mixedwood Plains,0.115208,small,0.775948122,3,3.987787,3.716687,5.033850347,20.291073,20.3,20.291073,17.909489,15.68111974,NA,0.393410027,0.356055027,25.0881336,6,6.634620684562497
08-215,NA,42.874465,-82.183136,Mixedwood Plains,0.128924,small,40.44208307,1.3,3.506376,3.716687,80.95557128,22.561189,20.2,22.561189,17.909489,148.252674,NA,0.684009027,0.345402027,4.613805665,NA,NA
08-216,Silver Lake,45.878584,-82.891038,Mixedwood Plains,5.41884,large,32.08093016,4.4,1.343151,2.241056,3.548935348,22.053688,22,22.053688,21.93025,6.525163347,NA,0.239787527,0.345402027,36.74812633,7,183.86639476618817
08-218,Falls Lake,45.898543,-83.106275,Mixedwood Plains,1.146601,medium,20.10149275,2.4,3.506376,3.716687,3.852769031,22.75957,22.8,22.75957,17.909489,13.47358496,NA,0.263239027,0.345402027,19.53741545,6,22.271431873365017
08-219,Lac Mccord,45.693047,-76.46411,Mixedwood Plains,0.110451,small,2.743297336,12,5.30463,2.143004,19.09262364,16.9944,10.1,17,6,23.84593198,NA,0.274318527,0.233845527,11.5037872,5,11.514511507811351
09-286,Nut Lake,52.343345,-103.706775,Prairies,17.992632,large,1828.259784,0.9,9.010963,9.010963,7.791633198,23.472854,23.5,23.472854,23.472854,167.4208535,107.8694954,3.80234947,0.92373072,22.71132532,6,154.38091384597084
09-287,NA,52.645297,-103.305742,Boreal Plains,0.369694,small,3.696007034,3.2,8.037726,6.433036,64.73425927,23.639783,22.8,23.6,21.937977,288.3140914,324.1495656,2.56594247,2.59704047,8.899816369,8,1362.8114620491424
09-288,NA,54.285648,-104.640536,Boreal Plains,0.209174,small,11.22157476,1,9.763031,9.384569,0.558806465,19.794957,19.8,19.794957,19.799373,38.8387782,83.53575618,0.86659047,0.46700147,22.31250596,7,40.93292174032883
09-290,NA,54.666389,-102.074369,Boreal Shield,0.265496,small,1.010393727,1.1,60.372264,59.611655,1.945325227,19.062207,19.1,19.062207,19.068473,531.7390053,16.50145412,4.35808547,0.197273999,8.195910826,7,254.48757255815377
09-292,Egg Lake,54.37048,-101.457133,Boreal Plains,30.620811,large,103.5091258,12.4,4.508606,5.943411,5.877613743,19.214724,18.9,19.1,18.5,23.17990064,20.25740003,0.26629097,0.21295647,11.48801171,10,57.533631124498726
09-296,Kaweenakumik Lake,52.789186,-99.487028,Boreal Plains,73.658512,large,323.4421394,3.6,4.627519,5.428727,18.00129797,20.262064,20.2,20.262064,20.214473,94.26772729,83.53575618,3.04547547,0.46700147,32.30666059,4,9015.208231509436
09-297,Devils Lake,52.398538,-98.912922,Boreal Plains,0.531275,medium,24.25121121,2.3,1.491652,1.536753,1.358626566,19.321111,19.3,19.321111,19.288911,8.142239721,83.53575618,0.27468597,0.46700147,33.73592272,3,16.601763301627606
09-298,Steepbank Lake,50.903309,-98.035553,Boreal Plains,1.111907,medium,6.028194703,1.7,7.201131,5.4156575,14.13992996,21.180331,21.2,21.180331,18.3036555,33.99328031,83.53575618,0.99283047,0.46700147,29.20666852,6,25.473921355190093
09-299,Husey Lake,50.937946,-98.640674,Boreal Plains,1.594108,medium,993.5954944,1.4,11.955763,12.215517,27.99169334,21.320913,21.3,21.320913,21.321544,99.8486946,83.53575618,1.63828097,0.46700147,16.40763534,7,32.16180665705755
09-300,Pine Lake,50.88855,-98.31427,Boreal Plains,1.180144,medium,17.80324989,1.1,25.004522,25.010888,30.98897227,18.750713,18.7,18.750713,18.752584,133.0857411,83.53575618,1.49610047,0.46700147,11.24162857,8,7.884251720539641
09-302,Norris Lake,50.480156,-97.419123,Boreal Plains,0.528175,medium,32.43209294,2.4,8.42099,10.7278,10.71229317,22.770429,22.6,22.7,21.5,33.73740417,32.17338379,0.64128397,0.63280747,19.00810053,6,154.39015025880946
09-367,Buck Lake,52.985369,-114.762406,Boreal Plains,25.210075,large,262.3998174,10,4.451052,1.342396,41.19281573,18.970256,17.5,18.970256,13.7,82.48634309,210.363115,0.90736547,0.34460097,13.28079264,6,484.41814700127304
09-369,NA,53.542469,-117.070949,Boreal Plains,0.104316,small,0.243133179,1.1,1.432757,1.534386,0.608968542,20.726437,20.7,20.726437,20.726828,15.56843277,83.53575618,0.43083697,0.46700147,27.67375344,NA,NA
09-370,Fickle Lake,53.449373,-116.779894,Boreal Plains,3.647939,medium,109.4212047,5,3.871224,4.098594,7.547102335,19.015571,18.2,18.9,16,17.81962896,17.620994,0.26253597,0.21832747,14.73296501,5,42.35136659423254
09-371,Millers Lake,53.559871,-116.768414,Boreal Plains,0.356656,small,1.990139394,6.4,1.2198,3.402478,1.48203453,20.614417,19.6,20.6,17.2,13.75864759,9.476960717,0.33749097,0.31343847,24.52937091,7,56.838543633932815
09-372,NA,53.682975,-116.270225,Boreal Plains,0.509518,medium,2.078188769,6.4,2.359444,27.676167,2.737958528,19.059438,17.4,19.1,11.2,19.09972091,42.58278707,0.42984297,0.46700147,22.50519639,4,258.0393695383254
09-373,NA,53.791313,-116.196712,Boreal Plains,2.142452,medium,65.53185615,5.4,5.857887,6.957416,6.184027563,18.884155,18.6,18.8,18.209251,33.84284891,83.53575618,0.31611297,0.46700147,9.340613458,5,18.971955240217863
09-374,NA,53.560248,-114.320995,Boreal Plains,0.248322,small,2.900756331,4.5,7.153662,28.216842,12.36087234,22.486843,20.5,23.3,18.643205,51.94070065,72.84151235,1.23124247,1.68723547,23.70477207,7,201.5811770147365
09-375,Lac la Nonne,53.939715,-114.321366,Boreal Plains,12.450974,large,287.318021,17,3.395967,1.634163,1.301264087,20.615323,16.3,21.1,11.4,325.659873,571.6488769,1.56544947,1.76265647,4.807007555,5,126.16378553927464
09-376,Peanut Lake,54.017538,-114.349031,Boreal Plains,0.446354,small,1.311206751,10,3.932342,5.970445,3.040196415,22.933597,13.2,23,5.4,341.3121491,872.0903901,2.55731947,0.46700147,7.4926119,5,601.1014675249404
09-377,NA,54.110058,-114.246698,Boreal Plains,0.242792,small,2.666313837,2.2,4.610372,5.4156575,4.698316073,19.921008,19.9,19.921008,18.8,175.0410405,83.53575618,1.95359647,0.46700147,11.160791,5,198.7304213202464
09-378,Canoe Lake,54.622591,-113.123462,Boreal Plains,1.012908,medium,12.87713001,1.9,18.603421,20.33878,7.477888175,20.518596,20.5,20.518596,20.510564,799.6140634,83.53575618,3.70194347,0.46700147,4.629662783,8,107.81380607455544
09-379,Long Lake,54.483,-112.754406,Boreal Plains,6.121436,large,93.13483976,8.7,3.98025,3.424062,1.890765322,20.474224,20.3,20.4,19.2,77.23719826,83.53575618,1.14164847,0.46700147,14.78107046,10,99.5607403453244
09-380,NA,55.061393,-114.016717,Boreal Plains,0.79265,medium,8.349635027,4.4,5.634209,4.554738,4.625134541,19.88497,19.7,19.88497,19.500044,120.5326755,83.53575618,1.60076947,0.46700147,13.28079264,4,1466.0461734814824
09-381,Winagami Lake,55.623088,-116.74359,Boreal Plains,45.114014,large,252.8297836,4.6,4.334625,7.018036,0.344708771,20.216592,19.5,21.6,18.9,44.06127905,83.53575618,0.59347197,0.46700147,13.46924063,8,404.93920156266097
09-382,Montagneuse Lake,56.503692,-118.46527,Boreal Plains,0.38027,small,7.732562573,6.2,8.68245,15.336496,3.045112194,19.034695,17.7,19.6,16.190503,29.06952019,22.73371734,0.26279747,0.24726297,9.04030986,5,470.1826168718537
09-383,Lac Magloire,55.871434,-117.173848,Boreal Plains,7.664064,large,67.50622307,1.15,9.956783,5.4156575,140.7800982,20.917984,20.8,20.917984,18.3036555,583.1843189,83.53575618,2.48973197,0.46700147,4.269202531,9,13848.636586064486
09-384,Flyingshot Lake,55.139873,-118.862224,Boreal Plains,1.448932,medium,57.05167868,1.4,63.192199,5.4156575,11.52408949,22.388648,22.4,23,18.3036555,139.8568334,83.53575618,0.65253647,0.46700147,4.665746064,11,216.9464803089824
09-385,Jones Lake,55.391549,-119.003383,Boreal Plains,1.308603,medium,61.46368327,1.1,6.693614,6.77734,42.80484153,22.33974,22.2,22.33974,21.8,471.1284173,83.53575618,1.73053847,0.46700147,3.673177857,4,4085.9853361752293
09-391,Charron Lake,54.847322,-112.508763,Boreal Plains,12.246555,large,57.97729461,3.7,6.428159,7.157942,11.08295431,21.573332,21.6,21.573332,21.528764,111.3678111,83.53575618,1.97023647,1.02321247,17.69125612,10,566.7752199995657
09-392,NA,54.894823,-112.316588,Boreal Plains,0.187696,small,1.597074582,2.7,3.670249,3.706135,5.183485903,22.594416,22.4,22.8,21.2,210.8021341,83.53575618,0.67204347,0.46700147,3.188029727,8,217.343206077388
09-393,Claude Lake,54.793696,-111.909232,Boreal Plains,0.687959,medium,14.4042159,12,7.462311,1.375526,3.720790471,22.581133,11.2,22.6,4.3,87.1343817,205.0527071,0.88107697,0.50637797,10.11170278,5,35.67099836254186
09-394,Elinor Lake,54.646202,-111.652296,Boreal Plains,9.309546,large,37.53081776,18,2.902287,1.855841,2.59151456,22.311261,15.4,22.3,8.3,19.68324919,167.6483887,0.40818497,0.46700147,20.73768238,9,59.17619857545538
09-395,Upper Mann Lake,54.143992,-111.499621,Boreal Plains,5.306558,large,72.43972601,4.1,4.339511,4.350142,2.717696711,20.405652,20.4,20.405652,20.390971,395.9571868,83.53575618,1.45718247,0.46700147,3.680151589,6,1889.2978798757936
09-396,Vincent Lake,54.116443,-111.341336,Boreal Plains,8.406731,large,64.73132687,5.7,3.746399,3.40633,8.317374223,18.945526,18.9,18.945526,18.845447,124.0100172,83.53575618,1.10810597,0.46700147,8.935616614,8,142.9932303145737
09-397,Upper Thérien Lake,53.965983,-111.293303,Boreal Plains,8.123439,large,148.4505515,2.6,5.086504,4.857099,5.648457992,17.671127,17.7,17.671127,17.655587,824.6077505,83.53575618,3.44826247,0.46700147,4.181700291,5,2665.38026785078
09-403,Wabamun Lake,53.544071,-114.581865,Boreal Plains,77.313145,large,342.5040038,10,1.61487,1.873832,2.55153824,21.008845,20.8,21.008845,20.550714,41.62359144,83.53575618,0.38515447,0.46700147,9.253273364,9,1065.1145731587253
09-408,Eleven Lake,50.523187,-99.843826,Boreal Plains,0.288422,small,6.481733751,1.8,3.841436,5.4156575,0.698656285,22.470846,22.5,22.470846,18.3036555,40.27481581,83.53575618,0.56560347,0.46700147,14.04360166,6,184.65003155780408
09-409,Falcon Lake,50.50351,-99.953734,Boreal Plains,0.330879,small,2.434510271,3.1,4.144989,3.921911,0.175231111,21.762307,21.8,21.762307,21.733473,252.694825,83.53575618,0.85882947,0.46700147,3.398682462,5,3203.7405241179854
09-410,NA,50.572023,-100.190591,Boreal Plains,0.326625,small,5.99307477,2,4.694712,5.4156575,2.816078152,19.720514,19.7,19.720514,18.3036555,301.8041167,83.53575618,1.06255247,0.46700147,3.520669239,5,3725.2774293495013
09-411,Little Jackfish Lake,50.47746,-100.074738,Boreal Plains,1.562495,medium,63.80318736,3.8,4.93211,5.402588,10.29777717,21.718091,21.7,21.718091,21.655071,83.62492697,83.53575618,0.75835147,0.46700147,9.068485887,8,1574.1113478387474
09-413,NA,51.008286,-101.106274,Boreal Plains,0.277271,small,0.435384376,1.7,4.705699,4.478903,2.034066987,22.640036,22.6,22.640036,22.638759,71.48153847,83.53575618,0.68818047,0.46700147,9.627387501,6,736.6905591389991
09-418,Hazel Lake,52.671132,-105.272507,Boreal Plains,1.009025,medium,10.70123523,7.1,10.686845,3.194522,0.525772089,23.341343,21.6,23.341343,17.5,73.90089879,167.7641052,1.07060647,3.03604247,14.48705615,6,437.15807261242344
09-419,NA,52.722615,-105.209001,Boreal Plains,1.080896,medium,22.09922526,2.1,9.200963,5.4156575,2.648514331,22.752384,22.8,22.752384,18.3036555,130.7615752,83.53575618,2.35837947,0.46700147,18.03572239,10,821.273074321251
09-420,Jumping Lake,52.855734,-105.447346,Boreal Plains,10.298984,large,92.52629654,7,5.009307,5.4156575,11.1238442,20.439938,19.25,20.558347,18.3036555,160.5558201,83.53575618,2.53270047,0.46700147,15.77457901,NA,NA
09-421,NA,52.854199,-106.157499,Boreal Plains,1.036787,medium,760.0102422,2.6,5.786545,6.461945,6.330733831,20.718715,20.7,20.718715,20.572418,95.06340162,83.53575618,2.77953447,0.46700147,29.23874407,6,275.4886987987362
09-423,NA,53.183739,-106.844945,Boreal Plains,1.095176,medium,6.19972844,20.5,2.265733,1.2963,0.897718827,22.114237,11.6,22,5.3,15.9095667,23.32380275,0.88562447,0.93919947,55.66615903,7,221.05320651975995
09-424,NA,53.220024,-106.853005,Boreal Plains,1.162123,medium,5.859952573,19,2.938879,1.592038,3.298660693,21.601595,11.3,21.6,5.4,27.16822145,182.0433746,0.89826147,0.46700147,33.06294715,8,235.97771394912832
09-425,NA,53.165963,-106.814976,Boreal Plains,0.487547,small,4.021218239,1.6,14.963847,16.913756,16.44772091,21.698485,21.7,21.698485,21.645985,81.88253752,83.53575618,3.16865347,0.46700147,38.69754854,8,468.90406796081635
09-426,Sled Lake,54.456237,-107.419508,Boreal Plains,91.510447,large,1105.619224,3,15.626013,16.361502,31.11224325,18.275023,18.3,18.275023,18.240347,124.1711432,83.53575618,1.85718547,0.46700147,14.95665919,13,1353.3638644219704
09-427,Poplar Ridge Lake,53.92408,-107.702852,Boreal Plains,0.117952,small,1.107347059,16,1.846928,3.891971,2.696036433,20.182806,10.4,21.1,4.5,10.50829494,18.58421266,0.26383897,0.30457747,25.10768602,10,103.51364112901064
09-428,Green Lake,54.09185,-107.6804,Boreal Plains,27.829952,large,877.1828918,42,6.646024,1.866541,168.0430522,20.637503,8.7,22.2,4.8,49.9508986,159.5335169,0.53405297,0.74165197,10.69155881,9,103.3281208057602
09-429,Bisgrove Lake,51.149512,-101.079876,Boreal Plains,0.937935,medium,6.416035763,3,5.009307,5.4156575,34.30660237,20.439938,19.25,20.558347,18.3036555,184.6722997,83.53575618,1.08410697,0.46700147,5.87043629,7,495.44716987551874
09-430,NA,54.993693,-108.344502,Boreal Plains,0.414449,small,11.90967114,7.4,4.677467,33.73362,4.130510124,20.598098,18.1,20.598098,11.1,21.12745746,108.9918473,0.24826497,0.45873247,11.75082096,9,134.79199151028465
09-431,Jeannette Lake,54.541364,-108.547482,Boreal Plains,3.708423,medium,11.08269512,15,1.536664,6.344907,1.732119312,20.941793,15,20.9,6.9,10.32997891,25.59950547,0.38484147,0.38787597,37.25481662,6,16.53453936125917
09-432,NA,53.54476,-109.095614,Boreal Plains,0.169021,small,11.5410511,1.9,20.525754,22.690373,3.008151277,22.494747,22.4,22.494747,22.477161,58.0482393,83.53575618,1.46820547,0.46700147,25.29285104,4,61.43514294956695
09-447,Mistawasis Lake,53.08939,-107.236605,Boreal Plains,6.313752,large,58.20580036,15,3.53929,4.891021,3.822117369,18.641259,18.5,18.5,17.7,33.23426876,83.53575618,0.72965397,0.46700147,21.95486759,9,338.58936281050944
09-449,NA,51.439365,-101.42674,Boreal Plains,0.127809,small,9.072406304,1.6,0.035963,5.4156575,10.69565024,19.198201,19.2,19.198201,18.3036555,145.5677816,83.53575618,0.70616747,0.46700147,4.851124763,9,152.9664806315199
09-450,Meeting Lake,53.188577,-107.657995,Boreal Plains,10.770107,large,131.9493459,13,7.859162,7.982045,13.9371029,17.921932,17.8,17.921932,17.542713,77.34623439,83.53575618,0.90736547,0.46700147,11.73121713,6,326.34936619021556
09-451,Picnic Lake,53.208341,-108.664809,Boreal Plains,0.48314,small,4.752736192,4.4,9.087126,9.090194,10.29929589,19.288364,19.1,19.288364,18.835135,22.92064116,83.53575618,0.90736547,0.46700147,13.28079264,9,173.34589995557278
09-454,Kerrs Lake,50.496501,-99.688457,Boreal Plains,1.41045,medium,16.46082605,4.1,4.87173,4.755447,9.751601167,17.883487,17.9,17.883487,17.879898,411.5867377,83.53575618,1.06884047,0.46700147,2.59687782,8,3038.211994938776
09-596,Pigeon Lake,53.024412,-114.059639,Boreal Plains,94.822205,large,264.9236591,10.5,4.024669,2.69651,5.5502584,15.709857,15.6,15.709857,15.614418,26.7,83.53575618,0.90736547,0.46700147,13.28079264,8,437.82947830899997
09-602,Willow Lake,56.462556,-111.162013,Boreal Plains,25.756448,large,252.3351363,7,4.895882,5.069907,6.931256756,19.213137,18.7,19.8,17.7,29.88,83.53575618,0.186066865,0.46700147,6.227137383,6,117.760313527
09-603,Kearl Lake,57.292089,-111.238794,Boreal Plains,5.115063,large,59.15888523,1.6,1.985518,5.4156575,2.913115497,20.00984,19.6,20.4,19.1,19.52,83.53575618,0.375587365,0.46700147,19.24115599,NA,NA
09-604,Saskatoon Lake,55.217558,-119.091379,Boreal Plains,7.983324,large,39.36635071,4,23.5505,34.206645,159.0176261,18.248833,17.8,18.248833,17.757139,816.26,83.53575618,2.025049365,0.46700147,2.480887664,6,250.78648213999998
09-605,Swan Lake,55.518181,-120.015159,Boreal Plains,5.54526,large,550.7880053,7.7,5.364306,4.651128,3.097081911,19.628895,18.3,20,16.4,39.33,94.23,0.301111365,0.46700147,7.656022502,7,54.810126647
09-606,Clairmont Lake,55.256701,-118.76132,Boreal Plains,6.480611,large,47.48822636,1.53,25.593645,5.4156575,25.11464789,20.9845,21,20.9845,18.3036555,146.41,83.53575618,1.066631365,0.46700147,7.285235742,7,414.48923755800007
09-607,Kakut Lake,55.628822,-118.528498,Boreal Plains,3.562448,medium,59.99201899,1.3,7.269936,5.4156575,15.19446685,22.689824,22.7,22.689824,18.3036555,157.86,83.53575618,0.941351365,0.46700147,5.963203883,9,56.47145874899999
09-608,Cardinal Lake,56.240918,-117.734668,Boreal Plains,48.583709,large,469.3298067,4,10.00549,11.167798,13.19689125,18.372171,18.4,18.372171,18.366964,75.64,83.53575618,1.167430365,0.46700147,15.43403444,4,1.9898562789999998
10-276,Swan Lake,49.360996,-98.911512,Prairies,12.640012,large,5140.360446,1.1,9.739068,8.407268,15.36883164,24.12558,24.1,24.12558,19.011619,351.7170151,107.8694954,1.14292597,0.92373072,3.249561212,7,1759.7934672535753
10-277,Gibsons Lake,49.426958,-99.435161,Prairies,0.162909,small,0.256543671,2.3,8.361199,8.832739,3.291871965,25.814807,25.8,25.814807,25.792294,85.58929864,107.8694954,2.35770197,0.92373072,27.54669109,5,3620.6704189956467
10-278,Pelican Lake,49.319927,-99.545126,Prairies,27.45311,large,585.286528,4.7,17.015173,19.013033,8.612273828,24.442685,23.7,24.7,23.5,292.1608376,107.8694954,1.10907847,0.92373072,3.796122982,7,823.1454087249674
10-280,Lake Stormon,49.002982,-100.065083,Prairies,0.269495,small,6.331445364,3.6,8.910549,16.369482,16.22960737,23.674057,22.5,23.6,18.5,61.92754899,131.9529345,0.52918847,0.75484147,8.54528362,6,191.39862396932588
10-281,Max Lake,49.062751,-100.141199,Prairies,2.698716,medium,12.84701785,6.1,6.727847,7.274396,3.757750454,23.60074,23.4,23.60074,23.15303,49.73951567,107.8694954,0.42216047,0.92373072,8.487426231,8,797.838843155236
10-283,Bennet Lake,49.771608,-102.458801,Prairies,0.277865,small,0.770499233,4,7.13951,8.407268,52.213717,19.875052,19.3,19.875052,19.011619,146.2702352,107.8694954,1.07180047,0.92373072,7.327536382,7,2371.6198379226894
10-284,NA,49.939593,-102.451854,Prairies,0.874875,medium,52.24626012,4.4,13.915921,19.546888,33.4339078,21.614301,21.3,21.614301,20.939805,123.9348377,107.8694954,1.60416997,0.92373072,12.94365652,7,427.9427911630681
10-285,Pasqua Lake,50.785639,-103.952104,Prairies,18.452352,large,37459.80869,15.6,5.549456,4.01402,28.62455198,20.721372,20.2,20.4,18.2,224.4441265,368.211695,0.84815447,1.04487197,3.778911408,7,549.3534590063362
10-301,North Shoal Lake,50.470346,-97.650318,Prairies,31.883725,large,111.7323019,3,4.208991,4.638533,16.21029538,20.850441,20.8,20.850441,20.804412,99.64654475,83.78605637,1.84171997,1.81585647,18.48252716,5,1188.4572468313515
10-346,Beaverdam Lake,49.084553,-113.606695,Prairies,0.672379,medium,3.120374363,3.5,5.675196,6.699098,5.309038009,21.324992,21.1,21.3,20.3,31.86525593,107.8694954,0.30285747,0.92373072,9.504316258,7,9.303868117939029
10-347,Outpost Lake,49.011395,-113.456521,Prairies,0.92819,medium,4.257507779,4.3,7.13951,8.407268,2.898361956,20.667687,20.7,20.667687,20.674733,22.7729149,107.8694954,0.53066997,0.92373072,23.30268094,6,3.93747495866102
10-348,Shanks Lake,49.068437,-112.718603,Prairies,4.068026,medium,114.6276713,2.5,6.699745,4.077916,5.193062578,20.31844,20.2,20.31844,20.141309,245.4819723,107.8694954,0.97988647,0.92373072,3.991684036,8,2650.5997820273633
10-349,NA,51.591071,-113.753331,Prairies,0.285667,small,139.1840227,1,35.465778,8.407268,5.211529913,15.623547,15.6,15.623547,19.011619,364.5096743,107.8694954,0.93554097,0.92373072,2.566573773,6,28.631825772111995
10-350,Keiver's Lake,51.68812,-113.555192,Prairies,1.143136,medium,12.42767673,1.3,5.223634,8.407268,6.317408392,18.574894,18.6,18.574894,19.011619,204.0815006,107.8694954,3.25093997,0.92373072,8.376377199,3,1328.2790043556047
10-351,Handhills Lake,51.490556,-112.12657,Prairies,8.728842,large,100.3583561,2,4.044922,4.675599,7.51378316,18.179583,18.2,18.179583,18.175132,2483.737518,107.8694954,2.10370497,0.92373072,0.846991663,4,312.9950483212275
10-352,Namaka Lake,50.939508,-113.232916,Prairies,6.414047,large,37.84987497,1.7,0.601831,8.407268,1.572203214,13.190904,13.2,13.190904,19.011619,294.9318764,107.8694954,0.99485647,0.92373072,3.373173772,6,1999.85760604966
10-353,Elkwater Lake,49.667277,-110.295708,Prairies,2.17332,medium,27.10799635,8.1,8.214791,9.100082,8.069483236,18.740481,18.7,18.740481,18.640905,42.2275898,107.8694954,0.32521997,0.92373072,7.701599157,4,64.86916340352667
10-354,Gull Lake,50.110293,-108.496956,Prairies,0.580212,medium,21.29022269,3.8,14.053784,9.342187,38.37058873,19.501295,19.4,19.501295,19.206731,467.9235846,107.8694954,2.59330397,0.92373072,5.542152726,7,1918.9185319046983
10-355,Lac Pelletier,49.986537,-107.934986,Prairies,2.995721,medium,110.2852174,9.7,8.040713,7.625905,1.281179627,20.058737,19.9,20.058737,19.814765,43.77189331,107.8694954,0.46359897,0.92373072,10.59124783,6,81.66678278203355
10-356,Fife Lake,49.217733,-105.851938,Prairies,29.369668,large,601.0121277,2,7.932788,9.899384,5.371916444,18.801198,18.8,18.801198,18.786965,522.1092647,107.8694954,0.66452047,0.92373072,1.272761307,5,459.97236230015864
10-357,NA,50.21254,-103.584538,Prairies,0.489784,small,2.097620808,1.8,7.115802,7.466596,12.90538937,17.732108,17.7,17.732108,17.741479000000002,204.0815006,107.8694954,2.00718097,0.92373072,8.376377199,7,269.5524635087647
10-358,Little Kenosee Lake,49.83338,-102.332239,Prairies,1.529128,medium,140.0525491,3.8,4.654925,5.054981,2.274460445,18.259562,18.3,18.259562,18.270178,22.20627735,107.8694954,0.58132547,0.92373072,26.17842968,7,624.7695790033513
10-359,Alkali Lake,49.813839,-102.397321,Prairies,0.14014,small,1.251402424,2.6,4.826263428,19.48808,3.058579394,16.59625244,16.5,16.59625244,16.508885,149.8988095,107.8694954,1.25560897,0.92373072,8.376377199,4,690.9116155537555
10-360,Kenosee Lake,49.813921,-102.309917,Prairies,8.25977,large,187.5735429,8,19.376272,18.351913,8.25794528,19.227901,19,19.227901,19.224589,60.75265342,107.8694954,0.72297497,0.92373072,11.90030277,6,123.40001074467474
10-361,Gillis Lake,49.839573,-102.425933,Prairies,0.627238,medium,107.2022546,4.4,48.527881,61.296652,4.502644125,19.54879,19.6,19.54879,19.555929,63.23547996,107.8694954,0.87702997,0.92373072,13.86927039,7,39.40569421651967
10-362,Pelican Lake,50.542953,-106.012079,Prairies,25.977629,large,2042.431232,2.9,6.703544,8.439073,9.676432593,20.508893,20.4,21.6,20,667.7518477,107.8694954,2.56210547,0.92373072,3.836912588,5,2492.3692211895345
10-364,NA,50.392956,-109.488101,Prairies,0.264618,small,638.3190966,2.2,76.296254,89.181444,19.84058084,19.209303,19.2,19.209303,19.202588,627.2034181,107.8694954,3.63500247,0.92373072,5.795571843,4,1455.005991934488
10-365,Shooting Lake,52.182962,-112.343561,Prairies,5.021389,large,70.88923958,1.6,8.351681,9.223076,24.50558549,20.344328,19.7,20.344328,19.2,377.8465405,107.8694954,2.27732047,0.92373072,6.027104197,5,12034.856347878933
10-386,NA,53.463347,-113.228775,Prairies,0.18306,small,16.41065672,1.3,62.449975,8.407268,8.816709565,21.248979,21.3,21.248979,19.011619,362.1487054,107.8694954,1.84436747,0.92373072,5.092845681,5,2.804648452135389
10-387,Driedmeat Lake,52.85999,-112.74476,Prairies,12.13582,large,7035.412274,3.3,8.317057,8.726655,25.33524621,18.171237,18.2,18.171237,18.169294,207.6827814,107.8694954,1.02254547,0.92373072,4.92359291,6,426.17439868564196
10-388,Boag Lake,53.518523,-113.219575,Prairies,0.926822,medium,41.73864101,1.8,13.843267,14.274203,8.15510198,20.114174,20.1,20.114174,20.113275,472.9477422,107.8694954,2.36935647,0.92373072,5.009763783,8,2591.917535619174
10-389,Skaro Lake,53.924854,-112.714336,Prairies,0.44898,small,33.50797018,2,36.220536,8.407268,7.791633198,19.875052,19.9,19.875052,19.011619,391.5145213,107.8694954,1.11435397,0.92373072,2.846264722,6,341.6527433382642
10-390,NA,53.658603,-112.778849,Prairies,0.007908,small,1.179633701,0.9,20.0855,8.407268,1.189319147,21.008677,21.1,21.008677,19.011619,540.2664245,107.8694954,0.96663847,0.92373072,1.789188493,10,80.74387134569395
10-398,Birch Lake,53.316011,-111.589784,Prairies,8.234785,large,197.8378724,1,4.969398,4.768177,2.197618991,17.615705,17.6,17.615705,17.701041,3968.270403,107.8694954,3.96394497,0.92373072,0.998909995,2,177.6947331349526
10-399,Thomas Lake,53.110315,-111.699187,Prairies,5.102608,large,126.1498471,4,36.234355,38.385783000000004,7.791633198,18.660511,18.6,18.660511,18.614038,3289.29417,107.8694954,3.36259247,0.92373072,1.022283899,3,13405.61883485948
10-400,Macklin Lake,52.320211,-109.95027,Prairies,0.75516,medium,4.559261203,2.2,93.702677,97.666207,162.1632018,16.085341,15.8,16.085341,15.750905,616.7544884,107.8694954,1.51163647,0.92373072,2.450953335,8,2795.6635427334613
10-401,NA,52.471187,-113.172336,Prairies,0.229453,small,10.78618424,1.7,6.204691,6.020385,13.3147578,18.821314,18.8,18.821314,18.792948,95.42355265,107.8694954,1.04248397,0.92373072,10.92480778,8,82.03108752844174
10-402,Miquelon Lakes,53.256011,-112.912167,Prairies,7.738021,large,42.23094481,1.4,3.726287,3.760595,45.44396024,18.258946,18.2,18.258946,18.239747,320.0560363,107.8694954,1.14222597,0.92373072,8.376377199,6,507.93944436753293
10-404,Hastings Lake,53.417396,-112.911743,Prairies,8.013838,large,400.5147798,4.9,15.770026,20.195894,76.3802355,18.701294999999998,18.3,18.701294999999998,18.138091,129.7180317,107.8694954,1.49549097,0.92373072,11.52878247,8,567.2429568199665
10-406,Red Deer Lake,52.721431,-113.060046,Prairies,21.081632,large,244.9955713,0.75,7.13951,8.407268,7.791633198,13.043075,13,13.043075,19.011619,317.5601102,107.8694954,4.22053297,0.92373072,13.29050102,3,733.9447064592431
10-407,NA,52.344099,-108.767665,Prairies,0.123013,small,252.5622565,8,2.382416,3.278874,1.778154105,16.395872,16.2,16.4,15.531673,572.6279571,107.8694954,0.62712947,0.92373072,1.095177876,6,610.5048351882407
10-412,Shoal Lake,50.388326,-100.626474,Prairies,4.786136,medium,382.9028166,1.8,6.614011,6.531836,56.51045035,21.840335,21.9,21.840335,21.938525,458.9538503,405.3800775,0.96442547,0.98859347,2.101356094,7,2513.9768239604846
10-414,Wilson Lake,51.31598,-102.877558,Prairies,0.251191,small,4.584171109,7.8,2.376543,8.485172,1.97741024,22.345874,16.2,22.3,4.9,50.54312226,82.0623586,0.69359897,0.85886797,13.72291499,5,367.1834638638421
10-415,Fishing Lake,51.819993,-103.544821,Prairies,30.170257,large,596.7622415,21,6.118301,1.887336,13.01933291,20.435517,15.3,20.9,7.7,53.93612787,141.1944103,0.60467747,0.60985597,11.21099148,4,284.1447737129639
10-416,NA,52.239307,-103.947363,Prairies,0.56151,medium,142.6604514,1.5,3.070838,8.407268,1.63562688,22.530522,22.5,22.530522,19.011619,47.10547184,107.8694954,0.69235747,0.92373072,14.69802643,4,1341.1683496072096
10-417,Houghton Lake,52.352834,-105.140944,Prairies,15.277564,large,681.218748,3.5,5.011314,4.924815,1.549405298,21.040144,21,21.040144,21.038369,255.2546155,107.8694954,2.97335147,0.92373072,11.64857084,8,6958.461748100263
10-422,Duck Lake,52.802144,-106.263384,Prairies,8.683879,large,589.7563102,1.5,6.411371,6.420522,5.559480676,19.244562,19.3,19.244562,19.205968,483.1437388,107.8694954,3.58956647,0.92373072,7.429603618,6,3109.4796016909504
10-433,NA,52.635863,-108.567479,Prairies,0.166044,small,70.33361189,1.2,6.217527,8.407268,14.56565099,21.162138,21.2,21.162138,19.011619,134.3167487,107.8694954,0.96144647,0.92373072,7.158053477,5,183.62450498082083
10-434,NA,52.708506,-109.791664,Prairies,1.358772,medium,1081.826114,2.05,8.133928,8.407268,16.61693425,22.730881,22.7,22.730881,19.011619,83.90945195,107.8694954,0.82336897,0.92373072,9.812589057,8,1618.7474372188192
10-435,Manitou Lake,52.738966,-109.652625,Prairies,81.192742,large,12760.76932,15,3.967938,6.215194,3.339062294,21.071645,8.5,21,0.8,1737.690033,2219.428451,3.88911597,1.47030197,2.238095343,2,337.283790443489
10-436,Suffern Lake,52.638124,-109.898419,Prairies,0.285528,small,7.004211175,7.4,3.631215,4.014275,4.236828373,21.294679,21.2,21.3,21.038965,24.52950953,25.96135917,0.28038297,0.29121947,11.43043523,8,105.09801122622113
10-437,Radisson Lake,52.489493,-107.408292,Prairies,4.366936,medium,1479.222121,1.6,7.13951,8.407268,6.320196338,19.875052,19.3,19.875052,19.011619,204.0815006,107.8694954,2.67104447,0.92373072,13.08812637,5,9734.657979153006
10-438,Crookshanks Lake,51.860856,-109.311232,Prairies,0.336759,small,17.90740753,1.5,5.988294,5.335939,12.90159335,20.806773,20.8,20.806773,20.809842,351.2031917,107.8694954,1.06985197,0.92373072,3.046247857,5,1353.7959556928527
10-439,Atton Lake,52.84409,-108.859002,Prairies,1.193907,medium,31.06215705,14,7.13951,8.407268,3.564208676,19.875052,19.3,19.875052,19.011619,19.12558339,28.21139818,0.38495797,0.46549747,20.12790732,5,6255.009127657167
10-440,NA,52.720884,-108.51576,Prairies,0.674852,medium,10.26930206,1,6.909453,8.407268,3.647412234,21.282237,21.3,21.282237,19.011619,956.9730775,107.8694954,2.38305997,0.92373072,2.490205865,5,3526.792526654124
10-441,NA,52.980027,-107.810639,Prairies,0.31571,small,3.379109175,2,7.13951,8.407268,2.408864676,23.14291,23.2,23.14291,19.011619,63.69610443,107.8694954,1.16111947,0.92373072,18.22904996,6,408.5996193221429
10-442,Tramping Lake,52.003037,-108.784517,Prairies,12.97168,large,2398.653143,2.6,10.459468,8.407268,3.52188544,22.279765,22.3,22.279765,19.011619,581.4940345,107.8694954,4.14089597,0.92373072,7.121132332,5,4349.305573515008
10-443,NA,51.631497,-104.274473,Prairies,0.277793,small,1.517697383,3.2,53.257824,56.541127,10.37687138,18.303964,18.3,18.303964,18.281253,147.5629101,107.8694954,1.77273897,0.92373072,12.01344544,5,714.9886255308282
10-444,Murray Lake,53.037189,-108.278678,Prairies,11.621124,large,2161.578501,6.3,8.395225,9.268359,9.803570314,19.238439,19.2,19.238439,19.23123,55.7813767,107.8694954,0.60899897,0.92373072,10.9176038,7,497.0684083141013
10-445,Schmidt Lake,52.670482,-109.211384,Prairies,0.450521,small,22.25324389,3.7,5.354891,5.735253,4.759765262,18.88389,18.8,18.88389,18.804904,204.0815006,107.8694954,1.14152597,0.92373072,8.376377199,3,9365.970466676228
10-446,Acton Lake,52.916564,-107.873935,Prairies,1.191197,medium,28.94833138,1.9,21.726039,24.178079,12.07311641,17.380974,17.4,17.380974,17.351887,85.65071376,107.8694954,3.05378797,0.92373072,35.6539699,4,912.0456844884352
10-448,Redberry Lake,52.689028,-107.159874,Prairies,48.391889,large,1168.909026,18,0.149902,5.172329,1.475658596,18.38192,10.7,18.4,2.5,35.0201783,52.85694983,1.56883647,2.13559047,44.79807203,2,60.4383895044507
10-452,Lytwyns Lake,51.597074,-99.849842,Boreal Plains,0.269097,small,3.249375119,1.2,10.690825,5.4156575,10.64595505,15.605735,15.6,15.605735,18.3036555,61.81672194,83.53575618,2.42684647,0.46700147,39.25873767,7,181.8201569229126
10-453,NA,52.671989,-108.310133,Prairies,0.534746,medium,82.3925947,2,4.702627,8.407268,4.690255609,17.982397,18,17.982397,19.011619,142.7551713,107.8694954,3.13768397,0.92373072,21.97947676,4,388.8633094760311
10-597,Muir Lake,53.623604,-113.95501,Boreal Plains,0.290301,small,4.223596969,5.49,6.472381,6.987795,11.16033164,17.7857,17.3,17.8,16.898569,44.14,83.53575618,0.78435636500000006,0.46700147,17.76974094,11,5.66728311
10-598,Astotin Lake,53.678768,-112.853935,Prairies,5.468172,large,48.37781946,6.1,12.175846,10.06879,44.92921752,18.525145,18.2,18.4,17.4,125.83,107.8694954,1.075011865,0.92373072,8.543366963,8,1086.995054002
10-599,Bruce Lake,52.382773,-110.969002,Prairies,1.076741,medium,31.90976315,0.25,163.9657784,8.407268,381.4863983,16.91207398,16.9,16.91207398,19.011619,10053.03,107.8694954,1.14222597,0.92373072,8.376377199,NA,NA
10-600,NA,52.695158,-111.374896,Prairies,0.670089,medium,2.073041622,2.1,5.38582,5.211703,43.5515515,19.017829,19,19.017829,19.011619,111.79,107.8694954,2.173115365,0.92373072,19.43926438,7,107.801009969
10-601,NA,53.547125,-111.801211,Prairies,0.247749,small,0.966754165,1.1,8.437683,8.293995,0.898088978,21.959577,21.2,22,20.9,4556.07,107.8694954,2.481156365,0.92373072,0.544582582,5,75.973196535
11-316,Slocan Lake,49.932203,-117.393357,Montane Cordillera,68.64717,large,1817.816673,94,0.059427,0.039625,0.97233184,13.574866,7.5,13.7,5.9,13.08612611,15.5639131,0.10614247,0.282172615,8.111068861,3,9.491223639152576
11-317,Victor Lake,50.957539,-118.396542,Montane Cordillera,0.087261,small,18.45683617,16,0.458508,0.851905,0.475447289,17.720603,9,17.7,8.354714,6.523338939,7.460879963,0.06051997,0.282172615,9.277452937,4,1.062091986172354
11-342,Whiteswan Lake,50.144066,-115.474903,Montane Cordillera,4.0642760000000004,medium,73.75266066,18,0.322943,1.680791,0.053412018,18.856109,15.7,18.7,11.1,5.997460899,8.059093654,0.07298747,0.025,12.16972836,3,150.29842873401165
11-343,Wasa Lake,49.779692,-115.735377,Montane Cordillera,1.049014,medium,20.42738779,14,0.976127,8.65401,1.121636622,22.694148,19.5,22.6,11.7,7.612747317,22.71972634,0.10866647,0.16616047,14.2742778,NA,NA
11-344,Tie Lake,49.410863,-115.327295,Montane Cordillera,1.35875,medium,14.08325476,4.5,1.322539,1.897982,2.668600498,24.188034,24.2,24.188034,24.09614,15.07593314,73.78,0.43235597,0.282172615,28.67855449,8,66.84855206495983
11-345,Surveyors Lake,49.245773,-115.235662,Montane Cordillera,0.13009,small,0.680137765,18,0.57062,3.394333,1.079371141,23.288897,16.7,23.2,7.8,10.77732636,57.83694294,0.25225947,0.31939847,23.4064982,4,270.9018611656701
11-470,Dunalter Lake,54.470753,-126.755752,Montane Cordillera,0.214665,small,2.084881957,18.5,3.641432,3.235177,2.288163911,19.638051,9.2,19.6,5.5,18.94,262,0.216412865,0.143429865,11.42623363,4,27.748270424
11-471,Round Lake,54.656922,-126.924746,Montane Cordillera,1.734901,medium,28.22909506,22.1,3.006208,1.710344,6.467878756,20.823158,10.7,20.8,6.7,19.12,234.04,0.310855865,0.356211365,16.25815194,5,54.026437371
11-476,Mulvaney Lake,54.077005,-125.757675,Montane Cordillera,0.253119,small,2.791545418,8.4,3.57108,4.29392,45.45624969,18.697244,15.2,19.5,10.4,51.87,597.41,0.729538365,1.192911365,14.06474581,3,235.084297728
11-477,Hanson Lake,54.242465,-125.061656,Montane Cordillera,1.683775,medium,94.06463954,7,3.558507,4.871249,8.353700223,17.663593,17.2,18.1,17,32.92,36.21,0.173052865,0.161706865,5.256769897,5,778.709955881
11-478,Ferguson Lake,54.037199,-122.84621,Montane Cordillera,0.160296,small,4.788972962,4.8,9.942023,13.590231,10.37939156,20.097252,14.8,20.2,7.7,23.99,51.97,0.268530365,0.377293865,11.19342914,6,68.070261746
11-479,NA,53.42795,-124.545783,Montane Cordillera,0.505207,medium,31.76279252,9.2,3.391861,4.530027,2.462804356,16.975047,13.3,16.9,8.9,19.07,26.04,0.247668115,0.253754365,10.27058906,6,154.710138869
11-480,Hobson Lake,53.580617,-124.73149,Montane Cordillera,0.64262,medium,4.874047616,7.9,2.653692,3.355892,4.5643176,17.603549,17.6,17.603549,17.518199,16.63,73.78,0.344293365,0.282172615,20.70314883,7,218.41607803399998
11-481,Fish Lake,53.598731,-124.889241,Montane Cordillera,0.443919,small,7.884036488,13.1,3.750666,3.523841,10.93686276,17.877709,12.2,17.7,8,37.8,381.77,0.287378865,0.366051865,7.602615476,7,321.37365346499996
11-482,NA,53.875399,-124.755299,Montane Cordillera,0.110364,small,0.74766597,7.2,5.305531,11.666476,6.438699823,17.041162,15.6,16.9,12.491402,24.44,56.91,0.214982865,0.224326365,8.7963529050000009,5,61.746441868000005
11-483,Co-op Lake,54.186152,-125.428674,Montane Cordillera,0.308484,small,2.269669642,10.4,4.588351,3.533808,4.570204578,18.18248,13.8,18,8.6,24.8,312.58,0.192981865,0.182438865,7.781526815,5,121.08826332999999
11-484,NA,53.977642,-125.898396,Montane Cordillera,0.329639,small,4.470810889,12,7.431179,4.108227,52.15468534,16.680267,11.1,16.5,7.7,71.44,434.02,1.112946365,1.298316865,15.57875651,3,25.982260087
11-485,Eakin Lake,53.810107,-125.913779,Montane Cordillera,0.415278,small,2.204705413,9.2,3.892557,3.713163,2.374735956,17.063073,15.6,17,10.1,18.06,23.33,0.375216365,0.350819865,20.77609994,6,279.446872988
11-486,NA,53.9938,-125.981445,Montane Cordillera,0.176897,small,71.1916755,8.1,5.841557,5.520216,108.1496912,18.093037,14.1,18,10,84.43,821.43,1.300624365,0.346864365,15.40476566,4,389.62403265
11-487,Totem Pole Lake,53.966067,-125.944652,Montane Cordillera,0.251245,small,45.9378675,3.2,25.64101,15.325758,19.17061827,17.101866,16.6,17.7,16.2,82,78.41,0.422248865,0.448534365,5.149376402,4,553.479681117
11-488,Tatalaska Lake,53.938458,-125.907128,Montane Cordillera,1.603847,medium,15.20214929,14.6,3.201218,2.63589,10.85676836,19.218532,11.8,19.3,8.3,57.85,530.55,0.628514865,0.423333365,10.86456119,3,62.82388881199999
11-489,Mollice Lake,53.957671,-125.714231,Montane Cordillera,1.927904,medium,31.17286063,19.1,3.744966,3.482295,3.235691689,20.374536,10,20.6,6.7,20.31,451.23,0.287452865,0.362012365,14.1532676,5,30.277249363999996
11-490,Eena Lake,54.049179,-123.018163,Montane Cordillera,0.525426,medium,1.888412701,23.3,0.820795,3.111133,1.714449378,21.327442,10.7,21.3,5.4,18.87,737.41,0.329475365,0.785512865,17.46027371,6,220.842624549
11-491,Chief Lake,54.120806,-123.004988,Montane Cordillera,7.081227,large,199.1595225,6.1,5.391282,9.023629,26.85472626,19.827683,18.9,19.8,17.5,38.7,70.28,0.625049865,0.790688865,16.1511593,8,233.221419197
11-492,Nukko Lake,54.064509,-123.007832,Montane Cordillera,4.234392,medium,130.6072261,17.2,1.555873,1.523531,2.719685289,19.692413,11.7,19.7,6.4,17.65,161.06,0.247668115,0.352604365,10.27058906,8,111.13441827099999
11-493,NA,54.008382,-123.135854,Montane Cordillera,0.128366,small,0.547925597,4.4,5.572654,9.065649,7.534937778,18.807344,17,18.8,14.333099,158.96,875.11,1.180659365,0.282172615,7.427399126,3,235.748888711
11-494,Nulki Lake,53.90613,-124.137247,Montane Cordillera,15.699943,large,334.2617459,7.6,4.517951,1.713275,38.17386129,19.854759,18.9,19.7,17.1,124.66,406.86,0.633583365,0.691886365,5.082491296,5,200.15276289999997
11-495,Williams Lake,52.118825,-122.075003,Montane Cordillera,6.845074,large,2329.146303,24.1,2.628653,2.398667,12.58742169,21.412054,12,21.4,6.1,61.41,234.2,0.247668115,0.282172615,10.27058906,5,101.139284806
11-496,Cummings Lake,52.086749,-121.952157,Montane Cordillera,0.452485,small,4.090048319,14.8,12.285067,3.448887,12.22593369,21.635195,10.5,21.6,4.6,117.11,1802.66,0.716997365,2.542120365,6.122426479,4,121.070494376
11-497,NA,52.000623,-122.173033,Montane Cordillera,0.142179,small,45.43078236,2,6.480778,3.180357,71.11047813,18.563152,18.6,18.563152,8.25,149.36,73.78,1.893165865,0.282172615,12.67518656,8,37.64917974299999
11-498,Chaunigan Lake,51.571867,-123.893069,Montane Cordillera,4.354143,medium,31.81314756,52.8,0.918006,1.927681,1.231264356,15.9778,7.8,15.9,5.5,13.36,38.89,0.174121865,0.166728365,13.03307373,4,27.069603055
11-499,Konni Lake,51.473574,-123.887461,Montane Cordillera,5.599651,large,50.41977991,29.9,1.354483,2.291133,0.973969956,16.713187,12.1,16.6,8,10.62,19.63,0.247668115,0.084286365,10.27058906,7,75.014234428
11-500,NA,52.15161,-124.512345,Montane Cordillera,0.350338,small,166.4893254,2.4,3.508194,3.180357,4.945336978,15.243483,15.2,15.243483,8.25,46.67,73.78,0.354997865,0.282172615,7.606553782,6,596.927518618
11-501,Nimpo Lake,52.340193,-125.204735,Montane Cordillera,9.229628,large,625.5644779,24.4,4.350754,1.528948,7.475182,16.13576,14.1,15.9,9.6,24.38,98.6,0.234621365,0.449828365,9.623517842,7,92.861077461
11-502,Blue Lake,52.341465,-122.236095,Montane Cordillera,0.390779,small,63.17150486,22.7,0.345921,4.249311,1.131500756,18.584501,11.2,18.4,5.4,8.03,70.72,0.116145865,0.410939365,14.46399315,7,91.624122513
11-503,Clearwater Lake,52.011725,-125.008155,Montane Cordillera,2.128724,medium,69.65758987,5.2,4.951834,4.888096,5.435865956,14.935062,14.8,14.935062,14.70268,24.43,73.78,0.515932865,0.282172615,21.11882378,10,65.792438155
11-508,Italia Lake,51.83278,-120.388941,Montane Cordillera,1.274679,medium,40.8543813,30,1.942929,1.722679,1.015631645,15.923719,6.5,15.9,4.7,5.96,9.21,0.130405865,0.069234365,21.88017869,6,45.055754239
11-509,Latremouille Lake,51.491893,-120.341789,Montane Cordillera,0.772349,medium,19.14947131,36,1.146162,0.670062,0.968338934,16.16584,7.8,16.1,4.8,9.21,16.04,0.093474865,0.145576865,10.14927959,6,166.87199991600002
11-510,Bridge Lake,51.501772,-120.751359,Montane Cordillera,13.361896,large,154.2415643,47,0.585098,0.671975,1.734728934,16.111263,6.9,16.1,4.9,17.94,54.5,0.175834865,0.263256365,9.801274526,6,144.87317682699998
11-511,Otter Lake,51.530721,-120.678772,Montane Cordillera,0.548153,medium,11.39275305,17,2.063903,2.749805,2.719350578,16.901437,9.7,16.8,5.3,13.35,374.98,0.203870365,0.228561865,15.27118839,6,135.235410584
11-512,French Lake,51.592882,-120.764438,Montane Cordillera,0.622784,medium,4.104812741,28.8,1.324297,1.764871,1.712500178,16.776923,7,16.7,4.4,10.34,201.58,0.139663865,0.173873365,13.50714362,5,59.17359787699999
11-513,Bouchie Lake,53.035093,-122.626301,Montane Cordillera,1.32326,medium,51.49109869,7.3,2.347573,1.363308,16.59147227,19.637879,18.4,19.5,15.5,122.05,73.78,0.546421365,0.282172615,4.4770288,6,1030.599371026
11-538,Rose Lake,54.398593,-126.023267,Montane Cordillera,0.187209,small,1.107041788,5.2,2.131356,7.130971,6.376463245,20.011243,19.8,20.011243,19.67404,35.64,73.78,0.286537365,0.282172615,8.039768939,4,109.933659559
11-539,Tachick Lake,53.95755,-124.191784,Montane Cordillera,20.604323,large,457.4141852,7.6,4.48509,5.745652,72.67214173,18.798186,18.7,18.798186,18.516697,170.99,73.78,0.786471865,0.282172615,4.59951965,4,313.38400624
11-540,NA,54.574531,-123.807885,Montane Cordillera,0.123061,small,0.903664968,6.1,19.932249,18.123118,40.11280174,17.594874,15.5,17.6,10.7,40.52,73.78,0.246406865,0.282172615,6.081117103,NA,NA
11-541,Takatoot Lake,55.120772,-125.196624,Montane Cordillera,7.184993,large,104.4984988,43.3,3.926133,1.923881,2.479717111,16.256406,8.7,16.2,6,9.33,12.66,0.120649365,0.282172615,12.93133601,4,31.297749017
11-542,Witch Lake,55.131569,-124.482396,Montane Cordillera,15.058388,large,183.3701268,50,1.563791,0.992473,1.376332089,15.206521,8.8,15.1,6.1,11.16,6.85,0.054421365,0.096082365,4.876466398,5,19.779592406
11-543,NA,55.334542,-125.318096,Montane Cordillera,0.157174,small,6.489905828,12,2.893413,3.398672,1.678556533,16.041484,9.6,16,5.7,10.2,23.4,0.105997365,0.158394865,10.39189853,6,23.417908670999996
11-544,MacDonald Lake,54.035583,-125.040308,Montane Cordillera,0.171858,small,13.28913643,1.8,1.436698,3.180357,1.200628445,14.224943,14.2,14.224943,8.25,13.85,73.78,0.275039365,0.282172615,19.85843791,7,60.311372987000006
11-545,Seas Lake,54.051353,-124.777216,Montane Cordillera,0.344658,small,3.852963163,5,7.219337,4.460578,17.3714476,17.234955,17,17.234955,16.880528,237.05,73.78,1.244810865,0.282172615,5.251258659,3,541.1272851
11-546,NA,54.168663,-124.208658,Montane Cordillera,0.124554,small,23.65270909,3.8,13.900697,18.955944,13.94136371,16.769785,16.6,16.769785,16.38925,37.1,73.78,0.271226365,0.282172615,7.310683693,5,267.674312354
11-547,Naltesby Lake,53.607447,-123.488697,Montane Cordillera,8.208918,large,203.0351271,20.1,2.963637,1.738351,6.755454667,16.17711,12.9,16.1,8.2,28.48,145.05,0.206251365,0.231213365,7.241972086,11,134.730217664
11-548,Mackenzie Lakes,53.539827,-122.942903,Montane Cordillera,0.254161,small,3.497733543,5.1,2.583573,2.611705,11.39437347,16.867535,16.8,16.867535,16.763121,52.6,73.78,0.309463865,0.282172615,5.883343441,7,325.63403521500004
11-554,Hammer Lake,51.234899,-120.718194,Montane Cordillera,0.640597,medium,5.102935494,11,3.504768,2.734731,2.110845778,16.493331,12.3,16.5,8.1,18.17,121.81,0.247668115,0.282172615,10.27058906,6,116.59413673600001
11-556,Sepa Lake,51.734097,-121.352237,Montane Cordillera,0.20094,small,3.878909824,4.6,4.751083,5.117188,1.797851511,18.449846,18.4,18.449846,18.40668,17.02,73.78,0.952185365,0.282172615,55.94508608,6,349.03313572400003
11-557,Greeny Lake,51.850947,-121.33891,Montane Cordillera,0.763683,medium,7.755518766,17,0.885995,2.152551,2.010530889,17.71073,12,17.7,7.1,12.77,55.03,0.458408365,0.991224865,35.89728778,4,211.15561601199997
11-558,Tabor Lake,53.916375,-122.54217,Montane Cordillera,3.692237,medium,27.54510826,9.3,3.323737,1.723038,4.252504667,18.407804,17.8,18.3,14.7,22.06,98.8,0.211881365,0.301088865,9.604776292,6,238.723677127
11-589,Tudyah Lake,55.084266,-123.038133,Montane Cordillera,6.190547,large,3781.87366,36.6,4.781285,2.255805,3.874793023,16.249936,11.3,16.2,8.8,15.49,27.49,0.084877865,0.471530365,5.479526469,11,26.583966503
11-590,Aleza Lake,54.115384,-122.064291,Montane Cordillera,0.562801,medium,68.54139233,18,4.74719,3.125537,2.8922584,17.730476,9.6,17.7,6.5,26.93,76.84,0.178654865,0.157073365,6.634046231,9,69.98344684200002
11-595,Upper Little Slocan Lake,49.67651,-117.658481,Montane Cordillera,0.743309,medium,132.9976691,21.5,1.138108,1.053543,1.1556984,14.65099,10.7,16.6,9.5,12.55,73.78,0.059988865,0.282172615,4.779989243,3,27.599340971999997
11-625,Crystal Lake,54.416617,-122.618301,Montane Cordillera,0.383407,small,5.298169115,28,0.851363,0.830188,0.807972933,18.580602,7.5,18.5,4.9,10.15,11.33,0.062395365,0.064508865,6.147326601,5,61.263503842000006
11-626,NA,54.67022,-123.558782,Montane Cordillera,0.2331,small,3.776672909,14.5,4.95727,3.757489,2.567470489,17.929323,9,17.9,5.3,14.17,90.79,0.152959865,0.137828365,10.79462703,8,88.130784613
11-627,Huble Lake,54.269426,-122.616376,Montane Cordillera,0.228167,small,1.180095259,7.3,18.694541,8.912392,5.294145334,17.984847,13.6,18,8.1,19.31,36.69,0.248929365,0.410000365,12.89121517,4,23.849830841000003
11-628,Dominion Lake,54.450825,-122.695605,Montane Cordillera,0.662624,medium,48.93721339,7.1,5.709988,3.935571,4.829251289,17.521281,14.7,17.5,9.6,15.52,46.97,0.096154365,0.114176365,6.195513209,8,67.130098446
11-629,Summit Lake,54.277084,-122.678241,Montane Cordillera,12.939057,large,149.9240645,16.4,5.035694,1.787602,4.672193023,17.955651,12.6,17.8,7.7,12.81,86.33,0.106470365,0.112275365,8.311503903,11,49.984150160999995
